id,id,full_name,sex,birth_year,city,state,country,continent,latitude,longitude,occupation,industry,domain,article_languages,page_views,average_views,historical_popularity_index
4110,3728,Gao Xingjian,Male,1940,Ganzhou,,China,Asia,25.86667000000001,114.93333,Writer,Language,Humanities,63,1439340,22847,24.1041
8160,3769,Wassily Leontief,Male,1905,Munich,,Germany,Europe,48.13333,11.56667,Economist,Social Sciences,Science & Technology,43,621949,14464,24.0845
4927,1777,Justus von Liebig,Male,1803,Darmstadt,,Germany,Europe,49.86667,8.65,Chemist,Natural Sciences,Science & Technology,44,1277543,29035,25.3021
3031,5856,William Stanley Jevons,Male,1835,Liverpool,,United Kingdom,Europe,53.4,-3.0,Economist,Social Sciences,Science & Technology,27,556636,20616,22.9292
7267,58,Thomas Aquinas,Male,1225,Roccasecca,,Italy,Europe,41.55,13.666670000000002,Philosopher,Philosophy,Humanities,103,17427900,169203,29.4352
192,1465,Pope Leo IX,Male,1002,Eguisheim,,France,Europe,48.0436,7.3067,Nobleman,Government,Institutions,49,771835,15752,25.5588
1727,11061,Ramires,Male,1987,Barra do Piraí,,Brazil,South America,-22.47,-43.825829999999996,Soccer Player,Team Sports,Sports,35,2594845,74138,14.6643
5358,4041,Frits Zernike,Male,1888,Amsterdam,,Netherlands,Europe,52.36667,4.9,Physicist,Natural Sciences,Science & Technology,42,372527,8870,23.9225
7779,5651,"Thubten Gyatso, 13th Dalai Lama",Male,1876,Thakpo Langdun,,China,Asia,,,Religious Figure,Religion,Institutions,27,1022624,37875,23.0383
1462,5207,Harold Macmillan,Male,1894,Chelsea,,United Kingdom,Europe,51.4875,-0.1684,Politician,Government,Institutions,50,1708508,34170,23.2807
6479,6540,Elisabeth of France,Female,1602,Fontainebleau,,France,Europe,48.40222,2.70056,Politician,Government,Institutions,26,108292,4165,22.5215
6025,5472,A. A. Milne,Male,1882,Hampstead,,United Kingdom,Europe,51.5541,-0.1744,Writer,Language,Humanities,33,2228190,67521,23.1339
10990,479,Florence Nightingale,Female,1820,Florence,,Italy,Europe,43.78333,11.25,Physician,Medicine,Science & Technology,81,12183178,150410,27.0094
1679,994,Pope Leo X,Male,1475,Florence,,Italy,Europe,43.78333,11.25,Religious Figure,Religion,Institutions,57,3143240,55145,26.052
5699,2912,Igor Stravinsky,Male,1882,Lomonosov,,Russia,Europe,59.916669999999996,29.76667,Composer,Music,Arts,88,10212624,116053,24.5543
8023,3049,Bram Stoker,Male,1847,Dublin,,Ireland,Europe,53.365,-6.21,Writer,Language,Humanities,61,11446300,187644,24.4769
712,1808,Roderic,Male,688,Other,,Unknown,Unknown,,,Politician,Government,Institutions,31,825993,26645,25.2656
2462,10081,Conchita Martínez,Female,1972,Monzón,,Spain,Europe,41.91,0.19,Tennis Player,Individual Sports,Sports,31,562599,18148,17.3654
10147,489,Gallienus,Male,218,Other,,Italy,Europe,,,Politician,Government,Institutions,49,1001951,20448,26.9885
10531,4349,Joseph I of Portugal,Male,1714,Lisbon,,Portugal,Europe,,,Politician,Government,Institutions,30,533868,17796,23.7688
4944,10350,Alexei Shirov,Male,1972,Riga,,Latvia,Europe,56.94889000000001,24.10639,Chessmaster,Individual Sports,Sports,27,237715,8804,16.7395
7600,11234,Masiela Lusha,Female,1985,Tirana,,Albania,Europe,41.326,19.816,Actor,Film And Theatre,Arts,77,2976937,38662,13.6305
8833,8463,Youssou N'Dour,Male,1959,Dakar,,Senegal,Africa,14.692779999999999,-17.44667,Singer,Music,Arts,30,1652130,55071,20.4977
8053,5705,Gilbert N. Lewis,Male,1875,Weymouth,MA,United States,North America,42.22083,-70.94028,Chemist,Natural Sciences,Science & Technology,32,1083015,33844,23.0078
6295,9405,Almaz Atambayev,Male,1956,Arashan,,Kyrgyzstan,Asia,,,Politician,Government,Institutions,35,259621,7418,18.7712
5503,6400,José Luis Rodríguez Zapatero,Male,1960,Valladolid,,Spain,Europe,41.63333,-4.71667,Politician,Government,Institutions,73,4039036,55329,22.6103
11020,4893,George Martin,Male,1926,HM Prison Holloway,,United Kingdom,Europe,51.55401,-0.12531,Musician,Music,Arts,39,3040392,77959,23.4701
4222,8489,Ice T,Male,1958,Newark,NJ,United States,North America,40.72422,-74.17257,Musician,Music,Arts,29,10259579,353779,20.4632
155,10570,Logan Lerman,Male,1992,Los Angeles,CA,United States,North America,34.07306,-118.39943999999998,Actor,Film And Theatre,Arts,31,14300785,461316,16.1873
1277,6785,Rosalind Franklin,Female,1920,Notting Hill,,United Kingdom,Europe,51.5096,-0.2043,Biologist,Natural Sciences,Science & Technology,43,7892474,183546,22.3585
8158,9189,Kristen Stewart,Female,1990,Los Angeles,CA,United States,North America,34.05,-118.25,Actor,Film And Theatre,Arts,58,55438548,955837,19.2244
6469,659,Manetho,Male,-300,Other,,Egypt,Africa,,,Historian,History,Humanities,46,685489,14902,26.6035
3949,1947,Ezra Pound,Male,1885,Hailey,ID,United States,North America,43.515,-114.30639,Writer,Language,Humanities,52,4817204,92639,25.1584
2454,8373,Davíð Oddsson,Male,1948,Reykjavik,,Iceland,Europe,64.13333,-21.933329999999998,Politician,Government,Institutions,27,206764,7658,20.6299
9865,10141,Mari Kiviniemi,Female,1968,Seinäjoki,,Finland,Europe,62.791669999999996,22.84167,Politician,Government,Institutions,45,459411,10209,17.2561
3296,2505,Michael I of Russia,Male,1596,Moscow,,Russia,Europe,55.75,37.61667,Politician,Government,Institutions,44,1549279,35211,24.7822
4086,5870,P. T. Barnum,Male,1810,Bethel,CT,United States,North America,41.37417,-73.395,Businessperson,Business,Business & Law,32,1783510,55735,22.923000000000002
3852,3960,Stuart Sutcliffe,Male,1940,Edinburgh,,United Kingdom,Europe,55.95306,-3.1888900000000002,Musician,Music,Arts,36,3495086,97086,23.9659
4450,4171,Artabasdos,Male,700,Other,,Unknown,Unknown,,,Politician,Government,Institutions,33,139940,4241,23.8546
2305,4426,Karol Szymanowski,Male,1882,Tymoszówka,,Ukraine,Europe,,,Composer,Music,Arts,29,1115719,38473,23.7241
8802,74,Mahatma Gandhi,Male,1869,Porbandar,,India,Asia,21.63,69.6,Social Activist,Activism,Public Figure,138,44366012,321493,29.1406
526,4799,Anna Pavlova,Female,1881,Saint Petersburg,,Russia,Europe,59.95,30.3,Dancer,Dance,Arts,41,1933653,47162,23.5206
7074,5815,Glenn Ford,Male,1916,Sainte-Christine,,Canada,North America,46.81667,-71.96667,Actor,Film And Theatre,Arts,33,2497055,75668,22.9547
2595,10428,Emile Heskey,Male,1978,Leicester,,United Kingdom,Europe,52.63333000000001,-1.13333,Soccer Player,Team Sports,Sports,40,4094451,102361,16.5589
8036,11088,Yelena Slesarenko,Female,1982,Volgograd,,Russia,Europe,48.7,44.51667,Athlete,Individual Sports,Sports,26,162963,6268,14.5771
11242,8638,Michael Ballack,Male,1976,Görlitz,,Germany,Europe,51.15278,14.98722,Soccer Player,Team Sports,Sports,62,8735747,140899,20.2157
8285,7737,Jan Peter Balkenende,Male,1956,Biezelinge,,Netherlands,Europe,51.48333,3.9666699999999997,Politician,Government,Institutions,55,1346632,24484,21.5125
329,8554,Fernando Alonso,Male,1981,Oviedo,,Spain,Europe,43.35,-5.845,Racecar Driver,Individual Sports,Sports,94,8891161,94587,20.3486
5846,235,Septimius Severus,Male,145,Leptis Magna,,Libya,Africa,32.63917,14.290560000000001,Politician,Government,Institutions,61,2978333,48825,27.8008
6317,10753,Robert Green,Male,1980,Chertsey,,United Kingdom,Europe,51.3902,-0.5074,Soccer Player,Team Sports,Sports,37,1435413,38795,15.7243
10315,6959,Alasdair MacIntyre,Male,1929,Glasgow,,United Kingdom,Europe,55.858000000000004,-4.2589999999999995,Philosopher,Philosophy,Humanities,26,813440,31286,22.238000000000003
11030,297,Ludwig Wittgenstein,Male,1889,Vienna,,Austria,Europe,48.2,16.366670000000006,Philosopher,Philosophy,Humanities,83,8293279,99919,27.5203
10086,9049,Holly Marie Combs,Female,1973,San Diego,CA,United States,North America,32.715,-117.1625,Actor,Film And Theatre,Arts,32,6728960,210280,19.4776
6357,10458,Alessandro Faiolhe Amantino Mancini,Male,1980,Ipatinga,,Brazil,South America,-19.5,-42.53333,Soccer Player,Team Sports,Sports,27,840533,31131,16.4817
9888,5771,Charles Lucien Bonaparte,Male,1803,Paris,,France,Europe,48.8567,2.3508,Biologist,Natural Sciences,Science & Technology,31,296245,9556,22.9765
9210,3362,Shen Kuo,Male,1031,Hangzhou,,China,Asia,30.25,120.16667,Philosopher,Philosophy,Humanities,30,517433,17248,24.3046
2660,594,Horemheb,Male,-1350,Other,,Unknown,Unknown,,,Politician,Government,Institutions,38,943695,24834,26.7293
5099,2629,Arturo Toscanini,Male,1867,Parma,,Italy,Europe,44.8,10.33333,Conductor,Music,Arts,41,1652172,40297,24.7128
10999,4222,Clara Zetkin,Female,1857,Königshain-Wiederau,,Germany,Europe,50.97083,12.8625,Politician,Government,Institutions,48,1306296,27215,23.8278
536,10965,Aleksandr Kerzhakov,Male,1982,Kingisepp,,Russia,Europe,59.36666999999999,28.61667000000001,Soccer Player,Team Sports,Sports,37,995337,26901,15.0151
10597,11315,Asa,Male,Unknown,Other,,Unknown,Unknown,,,Politician,Government,Institutions,31,282386,9109,12.3371
1823,6027,Isabella Rossellini,Female,1952,Rome,,Italy,Europe,41.9,12.5,Model,Media Personality,Public Figure,36,6346333,176287,22.836
797,445,"George Gordon Noel Byron, 6th Baron Byron",Male,1788,London,,United Kingdom,Europe,51.56667,-0.33333,Writer,Language,Humanities,99,8744028,88324,27.115
5635,11211,Diego Pérez,Male,1980,Montevideo,,Uruguay,South America,-34.88361,-56.181940000000004,Soccer Player,Team Sports,Sports,27,208201,7711,13.8455
5221,6437,Sandro Pertini,Male,1896,Stella,,Italy,Europe,44.4,8.5,Politician,Government,Institutions,32,1630254,50945,22.589000000000002
7613,1138,Ptolemy XIII Theos Philopator,Male,-62,Other,,Unknown,Unknown,,,Politician,Government,Institutions,33,535768,16235,25.8934
4708,5822,Leo Baekeland,Male,1863,Sint-Martens-Latem,,Belgium,Europe,51.01667,3.6333300000000004,Chemist,Natural Sciences,Science & Technology,31,503417,16239,22.9504
5159,6868,Giuseppe Di Stefano,Male,1921,Motta Sant'Anastasia,,Italy,Europe,37.5,14.96667,Singer,Music,Arts,26,515684,19834,22.3105
6188,1990,Mardonius,Male,-500,Other,,Unknown,Unknown,,,Military Personnel,Military,Institutions,30,391941,13065,25.1328
8224,10242,Arda Turan,Male,1987,Fatih,,Turkey,Asia,41.0225,28.94083,Soccer Player,Team Sports,Sports,37,4557455,123174,17.0262
3060,3942,Irena Sendler,Female,1910,Otwock,,Poland,Europe,52.11667,21.26667,Social Activist,Activism,Public Figure,41,4927078,120173,23.9821
8235,879,Martial,Male,40,Augusta Bilbilis,,Spain,Europe,,,Writer,Language,Humanities,37,1305740,35290,26.2186
5157,10851,Federico Balzaretti,Male,1981,Turin,,Italy,Europe,45.06667,7.7,Soccer Player,Team Sports,Sports,31,1433091,46229,15.4408
11292,2528,William Howard Taft,Male,1857,Cincinnati,OH,United States,North America,39.1,-84.51666999999998,Politician,Government,Institutions,85,7254933,85352,24.7676
1976,7896,Anerood Jugnauth,Male,1930,Vacoas-Phoenix,,Mauritius,Africa,-20.30005,57.474509999999995,Politician,Government,Institutions,27,243326,9012,21.3017
6918,9034,Juan Sebastián Verón,Male,1975,La Plata,,Argentina,South America,-34.92111,-57.95444000000001,Soccer Player,Team Sports,Sports,42,4115769,97995,19.500999999999998
6913,9466,Petr Čech,Male,1982,Pilsen,,Czech Republic,Europe,49.7475,13.3775,Soccer Player,Team Sports,Sports,56,7237347,129238,18.6441
7456,3381,Stefan Banach,Male,1892,Kraków,,Poland,Europe,50.06139,19.93833,Mathematician,Math,Science & Technology,46,841599,18296,24.2951
8334,802,Dio Cassius,Male,155,İznik,,Turkey,Asia,40.42917,29.721109999999996,Historian,History,Humanities,41,1023415,24961,26.3279
714,9899,Dokka Umarov,Male,1964,Chechen-Ingush Autonomous Soviet Socialist Republic,,Russia,Europe,,,Extremist,Outlaws,Public Figure,28,941079,33610,17.7771
4928,10509,Boris Gelfand,Male,1968,Minsk,,Belarus,Europe,53.9,27.566670000000002,Chessmaster,Individual Sports,Sports,36,459141,12754,16.3579
3175,2669,Eyvind Johnson,Male,1900,Boden,,Sweden,Europe,65.82556,21.69056,Writer,Language,Humanities,56,436696,7798,24.6951
9438,425,Robert Alexander Schumann,Male,1810,Zwickau,,Germany,Europe,50.71667,12.5,Composer,Music,Arts,76,8565063,112698,27.1574
7120,4781,Mary I of Portugal,Female,1734,Lisbon,,Portugal,Europe,38.71389,-9.139439999999999,Politician,Government,Institutions,29,816847,28167,23.5297
8832,8481,Kim Campbell,Female,1947,Port Alberni,,Canada,North America,49.23389,-124.805,Politician,Government,Institutions,30,1265945,42198,20.4764
6331,11193,Lars Bender,Male,1989,Rosenheim,,Germany,Europe,47.85,12.13333,Soccer Player,Team Sports,Sports,31,1348928,43514,13.9502
1532,8963,David Coulthard,Male,1971,Twynholm,,United Kingdom,Europe,54.86459,-4.08328,Racecar Driver,Individual Sports,Sports,45,2595984,57689,19.6646
10239,9133,Jerzy Dudek,Male,1973,Rybnik,,Poland,Europe,50.1,18.55,Soccer Player,Team Sports,Sports,39,2749266,70494,19.3264
1916,5641,Óscar Romero,Male,1917,Ciudad Barrios,,El Salvador,North America,13.766670000000001,-88.26666999999998,Religious Figure,Religion,Institutions,29,2759733,95163,23.0442
1648,3658,Pope John XI,Male,910,Rome,,Italy,Europe,41.9,12.5,Religious Figure,Religion,Institutions,45,336423,7476,24.1407
6104,8364,Tony Hawk,Male,1968,Carlsbad,CA,United States,North America,33.12194,-117.29693999999999,Skater,Individual Sports,Sports,28,7796163,278434,20.6401
10545,3764,Fuzûlî,Male,1494,Karbala,,Iraq,Asia,32.61667,44.03333,Writer,Language,Humanities,45,1163834,25863,24.088
2928,9869,Emre Belözoğlu,Male,1980,Istanbul,,Turkey,Asia,41.01361,28.955,Soccer Player,Team Sports,Sports,36,3419611,94989,17.8478
9792,6253,Tunku Abdul Rahman,Male,1903,Alor Setar,,Malaysia,North America,6.11667,100.36667,Politician,Government,Institutions,28,1806973,64535,22.6994
11232,3284,George Seferis,Male,1900,Urla,,Turkey,Asia,38.32222,26.76472,Writer,Language,Humanities,56,815084,14555,24.3465
6174,5656,Julius Nyerere,Male,1922,Butiama,,Tanzania,Africa,-1.76667,33.96667,Politician,Government,Institutions,43,1079977,25116,23.0348
1085,9016,Damien Hirst,Male,1965,Bristol,,United Kingdom,Europe,51.45,-2.58333,Artist,Fine Arts,Arts,29,5233895,180479,19.5288
2356,129,Diogenes of Sinope,Male,-412,Sinop,,Turkey,Asia,42.03333,35.15,Philosopher,Philosophy,Humanities,62,5869970,94677,28.4978
904,430,Valerian,Male,200,Other,,Unknown,Unknown,,,Politician,Government,Institutions,47,771977,16425,27.1442
1490,4187,Robert Ley,Male,1890,Germany,,Germany,Europe,52.51667,13.383329999999999,Politician,Government,Institutions,26,1152948,44344,23.8443
2541,7849,Eddie Guerrero,Male,1967,El Paso,TX,United States,North America,31.79028,-106.42333,Wrestler,Individual Sports,Sports,30,11212886,373763,21.3626
1711,2999,John William Strutt,Male,1842,Maldon,,United Kingdom,Europe,51.7318,0.6758,Physicist,Natural Sciences,Science & Technology,60,367034,6117,24.5093
3359,66,Blaise Pascal,Male,1623,Clermont-Ferrand,,France,Europe,45.7831,3.0824,Mathematician,Math,Science & Technology,103,17297105,167933,29.2544
4954,4672,Dziga Vertov,Male,1896,Białystok,,Poland,Europe,53.11666999999999,23.15,Film Director,Film And Theatre,Arts,27,984833,36475,23.5913
5471,5603,Max Wolf,Male,1863,Heidelberg,,Germany,Europe,49.41667,8.71667,Astronomer,Natural Sciences,Science & Technology,34,212224,6242,23.0697
617,3286,Hugo von Hofmannsthal,Male,1874,Landstraße,,Austria,Europe,48.19639,16.39583,Writer,Language,Humanities,31,1294235,41750,24.3443
3147,1025,Mikhail Lermontov,Male,1814,Moscow,,Russia,Europe,55.75,37.61667,Writer,Language,Humanities,59,1419489,24059,26.0166
10444,1427,Teresa of Ávila,Female,1515,Gotarrendura,,Spain,Europe,40.81667,-4.7333300000000005,Religious Figure,Religion,Institutions,46,4497047,97762,25.5861
3855,6621,Melvil Dewey,Male,1851,Adams Center,NY,United States,North America,43.86222,-76.00694,Inventor,Invention,Science & Technology,29,680309,23459,22.4539
3535,9849,Patrick Rafter,Male,1972,Mount Isa,,Australia,Oceania,-20.73333,139.5,Tennis Player,Individual Sports,Sports,37,1681288,45440,17.8739
9377,11180,Jeremy Wariner,Male,1984,Irving,TX,United States,North America,32.81167,-96.95083000000001,Athlete,Individual Sports,Sports,29,1021027,35208,14.0171
10425,9859,Hamit Altıntop,Male,1982,Gelsenkirchen,,Germany,Europe,51.51667,7.1,Soccer Player,Team Sports,Sports,43,4092959,95185,17.8584
11065,8851,Sandra,Female,1962,Saarbrücken,,Germany,Europe,49.23333,7.0,Singer,Music,Arts,33,756918,22937,19.8646
2613,6988,Don Rosa,Male,1951,Louisville,KY,United States,North America,38.25,-85.76666999999998,Comic Artist,Design,Arts,26,1098278,42241,22.2169
680,5422,James Mason,Male,1909,Huddersfield,,United Kingdom,Europe,53.645,-1.7798,Actor,Film And Theatre,Arts,33,2866700,86870,23.1603
9020,2926,Max Reger,Male,1873,Brand,,Germany,Europe,49.95,11.9,Composer,Music,Arts,37,765375,20686,24.5431
7268,9214,Claudio Caniggia,Male,1967,Henderson,,Argentina,South America,-36.28333,-61.71666999999999,Soccer Player,Team Sports,Sports,31,2189722,70636,19.1788
6081,10404,Steve Mandanda,Male,1985,Kinshasa,,,Africa,-4.325,15.322220000000002,Soccer Player,Team Sports,Sports,32,1273038,39782,16.6266
9574,5018,Daphne du Maurier,Female,1907,London,,United Kingdom,Europe,51.507220000000004,-0.1275,Writer,Language,Humanities,33,2014485,61045,23.4003
1438,10074,Howard Webb,Male,1971,Rotherham,,United Kingdom,Europe,53.4301,-1.3572,Referee,Team Sports,Sports,42,2872091,68383,17.3791
9178,1567,Pausanias,Male,110,Anatolia,,Turkey,Asia,39.0,32.0,Geographer,Social Sciences,Science & Technology,38,407968,10736,25.4719
11158,9950,Ashley Greene,Female,1987,Jacksonville,FL,United States,North America,30.336940000000002,-81.66139,Actor,Film And Theatre,Arts,35,15579854,445139,17.6779
7012,3955,Goldie Hawn,Female,1945,"Washington, D.C.",,United States,North America,,,Actor,Film And Theatre,Arts,41,10706229,261128,23.9664
1113,10742,Muntadhar al Zaidi,Male,1979,Iraq,,Iraq,Asia,33.33333,44.43333,Journalist,Language,Humanities,35,696293,19894,15.7644
9861,5462,George Eastman,Male,1854,Waterville,NY,United States,North America,42.931670000000004,-75.37666999999998,Inventor,Invention,Science & Technology,40,1808698,45217,23.1371
2034,7788,Chinua Achebe,Male,1930,Ogidi,,Nigeria,Africa,6.15,6.86667,Writer,Language,Humanities,47,2735823,58209,21.4536
4962,3344,Leopold von Ranke,Male,1795,Wiehe,,Germany,Europe,51.26667,11.41667,Historian,History,Humanities,34,863860,25408,24.3135
7934,9177,Ayaan Hirsi Ali,Female,1969,Mogadishu,,Somalia,Africa,2.03333,45.35,Philosopher,Philosophy,Humanities,36,3098782,86077,19.2462
706,4918,Jacques Monod,Male,1910,Paris,,France,Europe,48.8567,2.3508,Chemist,Natural Sciences,Science & Technology,36,621576,17266,23.4585
553,3208,Stenka Razin,Male,1630,Voronezh,,Russia,Europe,59.93333000000001,30.33333,Social Activist,Activism,Public Figure,33,610485,18500,24.3851
10548,7968,Julio María Sanguinetti Coirolo,Male,1936,Montevideo,,Uruguay,South America,-34.88361,-56.181940000000004,Politician,Government,Institutions,27,235651,8728,21.2089
2596,4621,Luciano Berio,Male,1925,Oneglia,,Italy,Europe,,,Composer,Music,Arts,32,921894,28809,23.6148
8905,2394,Erik Axel Karlfeldt,Male,1864,Dalarna,,Sweden,Europe,,,Writer,Language,Humanities,53,391010,7378,24.8524
10192,10069,Pascal Zuberbühler,Male,1971,Frauenfeld,,Switzerland,Europe,47.55,8.9,Soccer Player,Team Sports,Sports,26,374708,14412,17.3868
2843,394,Gustav Mahler,Male,1860,Kaliště,,Czech Republic,Europe,49.593059999999994,15.304170000000001,Composer,Music,Arts,76,7499603,98679,27.2288
911,6287,Abdoulaye Wade,Male,1926,Kébémer Department,,Senegal,Africa,15.37,-16.45,Politician,Government,Institutions,43,981117,22817,22.6769
8503,5176,Heinrich Otto Wieland,Male,1877,Pforzheim,,Germany,Europe,48.9,8.71667,Chemist,Natural Sciences,Science & Technology,36,242515,6737,23.303
2969,357,Alessandro Volta,Male,1745,Como,,Italy,Europe,45.81667,9.08333,Physicist,Natural Sciences,Science & Technology,73,6799961,93150,27.3457
1901,10613,Birgit Prinz,Female,1977,Frankfurt,,Germany,Europe,50.11667,8.68333,Soccer Player,Team Sports,Sports,27,1210871,44847,16.077
7413,4974,André Malraux,Male,1901,Paris,,France,Europe,48.8567,2.3508,Writer,Language,Humanities,44,2656281,60370,23.4229
4682,2742,Emil Adolf von Behring,Male,1854,Ławice,,Poland,Europe,53.6,19.66667,Physician,Medicine,Science & Technology,52,646722,12437,24.6517
503,8103,Martin Lawrence,Male,1965,Frankfurt,,Germany,Europe,50.11667,8.68333,Actor,Film And Theatre,Arts,45,10437037,231934,21.0299
2930,4414,Columba,Male,521,Gartan,,Ireland,Europe,55.029740000000004,-7.77866,Religious Figure,Religion,Institutions,33,974606,29534,23.7308
194,10870,Jeffrén Suárez,Male,1988,Ciudad Bolívar,,Venezuela,Europe,8.11667,-63.55,Soccer Player,Team Sports,Sports,29,2190090,75520,15.3693
436,6003,Gaspare Spontini,Male,1774,Maiolati Spontini,,Italy,Europe,43.48333,13.116670000000001,Composer,Music,Arts,26,202114,7774,22.8494
4271,5913,Paul J. Crutzen,Male,1933,Amsterdam,,Netherlands,Europe,52.36667,4.9,Chemist,Natural Sciences,Science & Technology,36,288581,8016,22.8988
9209,10240,Duffy,Female,1984,Bangor,,United Kingdom,Europe,53.228,-4.128,Singer,Music,Arts,38,2549982,67105,17.0306
4411,5694,Cemal Gürsel,Male,1895,Erzurum,,Turkey,Asia,39.908609999999996,41.27694,Politician,Government,Institutions,38,786189,20689,23.0143
2355,4490,Ivan Gašparovič,Male,1941,Poltár,,Slovakia,Europe,48.43056,19.7975,Politician,Government,Institutions,52,628389,12084,23.6886
7389,10561,Colbie Caillat,Female,1985,Los Angeles,CA,United States,North America,34.03,-118.75,Musician,Music,Arts,27,5591841,207105,16.2127
9776,7606,Hassan Gouled Aptidon,Male,1916,Lughaya,,Somalia,Africa,10.68778,43.93639,Politician,Government,Institutions,28,127894,4568,21.6618
5565,3902,Vivienne Westwood,Female,1941,Tintwistle,,United Kingdom,Europe,53.4723,-1.9724,Fashion Designer,Design,Arts,27,4109160,152191,24.0096
10100,2189,Karlheinz Stockhausen,Male,1928,Mödrath,,Germany,Europe,50.9,6.71667,Composer,Music,Arts,42,2321932,55284,24.9925
5705,4816,Sophus Lie,Male,1842,Nordfjordeid,,Norway,Europe,61.90611,5.99139,Mathematician,Math,Science & Technology,34,372984,10970,23.5132
2241,3200,Frédéric Joliot-Curie,Male,1900,Paris,,France,Europe,48.8567,2.3508,Physicist,Natural Sciences,Science & Technology,48,915391,19071,24.3881
2120,9165,"Frederik, Crown Prince of Denmark",Male,1968,Copenhagen,,Denmark,Europe,55.676109999999994,12.56833,Nobleman,Government,Institutions,34,992999,29206,19.2639
3028,5857,Subutai,Male,1176,Burkhan Khaldun,,Mongolia,Asia,48.75389000000001,108.66375,Military Personnel,Military,Institutions,28,832892,29746,22.9281
3826,5078,Robert Solow,Male,1924,New York,NY,United States,North America,40.69278,-73.99028,Economist,Social Sciences,Science & Technology,36,911492,25319,23.3643
5615,54,Aesop,Male,-620,Other,,Unknown,,39.020559999999996,31.289170000000002,Writer,Language,Humanities,69,7898719,114474,29.4989
8639,10380,Kim Clijsters,Female,1983,Bilzen,,Belgium,Europe,50.86667,5.5166699999999995,Tennis Player,Individual Sports,Sports,57,4959241,87004,16.6838
8979,3349,Nicodemus,Male,-50,Other,,Unknown,Unknown,,,Religious Figure,Religion,Institutions,28,1387006,49536,24.3122
1636,1534,Userkaf,Male,-2500,Other,,Unknown,Unknown,,,Politician,Government,Institutions,29,248850,8581,25.5015
5024,5156,Robert Bosch,Male,1861,Albeck,,Germany,Europe,48.49667,10.12,Businessperson,Business,Business & Law,27,1043663,38654,23.3146
3825,2579,John Cleese,Male,1939,Weston-super-Mare,,United Kingdom,Europe,51.346000000000004,-2.977,Actor,Film And Theatre,Arts,48,8899553,185407,24.7457
9916,3321,George Marshall,Male,1880,Uniontown,,United States,North America,39.9,-79.72444,Politician,Government,Institutions,52,2750765,52899,24.3237
4502,9429,Edward Furlong,Male,1977,Los Angeles,CA,United States,North America,34.17083,-118.25,Actor,Film And Theatre,Arts,27,8061949,298591,18.7371
8879,831,Clement of Alexandria,Male,150,Athens,,Greece,Europe,37.96667,23.71667,Philosopher,Philosophy,Humanities,41,1187054,28953,26.2738
1505,3312,Victor Vasarely,Male,1906,Pécs,,Hungary,Europe,46.07125,18.23311,Artist,Fine Arts,Arts,30,2160006,72000,24.3293
3072,1495,Peter III of Russia,Male,1728,Kiel,,Germany,Europe,54.333330000000004,10.13333,Politician,Government,Institutions,49,2810467,57356,25.5332
7493,918,Salvador Allende,Male,1908,Valparaíso,,Chile,South America,-33.05,-71.61667,Politician,Government,Institutions,71,7470018,105212,26.1682
6318,1503,Matthias Corvinus of Hungary,Male,1443,Cluj-Napoca,,Romania,Europe,46.76667,23.58333,Politician,Government,Institutions,41,2018697,49237,25.5265
2908,4997,Marie Tussaud,Female,1761,Strasbourg,,France,Europe,48.58,7.75,Sculptor,Fine Arts,Arts,32,935173,29224,23.4093
2312,4115,Crown Prince Rudolf of Austria,Male,1858,Laxenburg,,Austria,Europe,48.06667,16.35,Nobleman,Government,Institutions,32,1660923,51904,23.8786
9194,6401,Mikhail Tal,Male,1936,Riga,,Latvia,Europe,56.94889000000001,24.10639,Writer,Language,Humanities,50,1105892,22118,22.6099
11301,9564,Antonio Saca,Male,1965,Usulután,,El Salvador,North America,13.35,-88.45,Politician,Government,Institutions,30,395281,13176,18.4635
10891,2818,Soseki Natsume,Male,1867,Tokyo,,Japan,Asia,35.68333,139.68333,Writer,Language,Humanities,37,4175800,112859,24.6024
7323,3158,Anne Brontë,Female,1820,Thornton,,United Kingdom,Europe,53.7898,-1.8504,Writer,Language,Humanities,50,1441313,28826,24.4148
571,10410,Jennifer Lawrence,Female,1990,Louisville,KY,United States,North America,38.25,-85.76666999999998,Actor,Film And Theatre,Arts,42,35058386,834723,16.6124
8035,4814,Léon Gambetta,Male,1838,Cahors,,France,Europe,44.4483,1.4414,Politician,Government,Institutions,29,851422,29359,23.5142
1981,6073,Max Delbrück,Male,1906,Berlin,,Germany,Europe,52.51667,13.383329999999999,Physicist,Natural Sciences,Science & Technology,38,292142,7688,22.8145
9999,9118,Linda Evangelista,Female,1965,St. Catharines,,Canada,North America,43.18333,-79.23333000000002,Model,Media Personality,Public Figure,28,3645442,130194,19.3587
3515,9612,Martín Palermo,Male,1973,La Plata,,Argentina,South America,-34.92111,-57.95444000000001,Soccer Player,Team Sports,Sports,31,2819441,90950,18.3603
6160,8658,Bertie Ahern,Male,1951,Dublin,,Ireland,Europe,53.368,-6.256,Politician,Government,Institutions,44,923489,20988,20.1857
4717,5537,Émile Borel,Male,1871,Saint-Affrique,,France,Europe,43.9592,2.8872,Mathematician,Math,Science & Technology,32,314594,9831,23.1045
6114,7797,Joseph Dalton Hooker,Male,1817,Halesworth,,United Kingdom,Europe,52.342,1.506,Biologist,Natural Sciences,Science & Technology,28,453473,16195,21.4463
7467,3609,Ferdinand III of Castile,Male,1199,Zamora,,Spain,Europe,41.49889,-5.75556,Politician,Government,Institutions,31,935563,30179,24.1776
1757,691,Henry IV of France,Male,1553,Pau,,France,Europe,43.3,-0.37,Politician,Government,Institutions,61,8348992,136869,26.5453
6603,9460,Gary Coleman,Male,1968,Zion,IL,United States,North America,42.45322,-87.84022,Actor,Film And Theatre,Arts,29,11012150,379729,18.6548
3223,5384,David Alfaro Siqueiros,Male,1896,Chihuahua,,Mexico,North America,28.635279999999998,-106.08888999999999,Painter,Fine Arts,Arts,26,2299476,88441,23.1845
10476,10182,Ryan Babel,Male,1986,Amsterdam,,Netherlands,Europe,52.36667,4.9,Soccer Player,Team Sports,Sports,43,3198337,74380,17.1536
9404,10389,"Princess Madeleine, Duchess of Hälsingland and Gästrikland",Female,1982,Drottningholm,,Sweden,Europe,59.32167,17.886110000000006,Nobleman,Government,Institutions,31,1821058,58744,16.6621
2778,11283,Jay Spearing,Male,1988,Wallasey,,United Kingdom,Europe,53.423,-3.065,Soccer Player,Team Sports,Sports,26,1092475,42018,13.1111
6337,3334,James Stewart,Male,1908,Indiana,PA,United States,North America,40.61667,-79.15,Actor,Film And Theatre,Arts,54,7573747,140255,24.3192
348,5613,Alan Parker,Male,1944,Islington,,United Kingdom,Europe,51.544,-0.1027,Film Director,Film And Theatre,Arts,30,1632885,54430,23.0626
3334,4108,Gilberto Gil,Male,1942,Salvador,,Brazil,South America,-12.97472,-38.47667,Musician,Music,Arts,32,1799746,56242,23.8799
4401,7987,Quentin Bryce,Female,1942,Brisbane,,Australia,Oceania,-27.46667,153.03333,Politician,Government,Institutions,26,1012573,38945,21.1894
1025,1938,Ritchie Blackmore,Male,1945,Weston-super-Mare,,United Kingdom,Europe,51.346000000000004,-2.977,Musician,Music,Arts,39,5660187,145133,25.1643
5102,7357,Herbert A. Hauptman,Male,1917,New York,NY,United States,North America,40.7127,-74.0059,Mathematician,Math,Science & Technology,37,184469,4986,21.928
2426,1867,Alfred Wegener,Male,1880,Berlin,,Germany,Europe,52.51667,13.383329999999999,Geologist,Natural Sciences,Science & Technology,54,4330857,80201,25.2158
4104,5163,J. Hans D. Jensen,Male,1907,Hamburg,,Germany,Europe,53.56528,10.001389999999999,Physicist,Natural Sciences,Science & Technology,40,250194,6255,23.3115
10250,5785,Charles-Marie Widor,Male,1845,Lyon,,France,Europe,45.76,4.84,Composer,Music,Arts,27,491744,18213,22.968000000000004
4622,7878,Hal Holbrook,Male,1925,Cleveland,OH,United States,North America,41.48222,-81.66972,Actor,Film And Theatre,Arts,30,2574339,85811,21.3297
6737,1462,Vyacheslav Molotov,Male,1890,Sovetsk,,Russia,Europe,57.583330000000004,48.95,Politician,Government,Institutions,55,3413262,62059,25.5609
10314,5950,Lillian Gish,Female,1893,Springfield,OH,United States,North America,39.92694,-83.80417,Actor,Film And Theatre,Arts,37,2087815,56427,22.8777
10705,2568,Mahmud II,Male,1785,Istanbul,,Turkey,Asia,41.01224000000001,28.976020000000002,Politician,Government,Institutions,47,1409863,29997,24.750999999999998
1687,7436,Stanley B. Prusiner,Male,1942,Des Moines,IA,United States,North America,41.59083,-93.62083,Chemist,Natural Sciences,Science & Technology,32,308799,9650,21.8544
6453,9695,Hans-Jörg Butt,Male,1974,Oldenburg,,Germany,Europe,53.14389,8.21389,Soccer Player,Team Sports,Sports,34,1506172,44299,18.2086
7977,7399,John Michael Talbot,Male,1954,Oklahoma City,OK,United States,North America,35.48222,-97.535,Musician,Music,Arts,79,323341,4093,21.8871
3951,4274,Władysław I the Elbow-high,Male,1261,Kuyavia,,Poland,Europe,,,Politician,Government,Institutions,26,1196859,46033,23.8036
3460,3070,Emma Goldman,Female,1869,Kaunas,,Lithuania,Europe,,,Social Activist,Activism,Public Figure,63,3267979,51873,24.4682
1642,4198,Melvin Calvin,Male,1911,Saint Paul,MN,United States,North America,44.94417,-93.09361,Chemist,Natural Sciences,Science & Technology,42,619225,14743,23.8398
4034,8694,Sharon den Adel,Female,1974,Waddinxveen,,Netherlands,Europe,52.05,4.65,Singer,Music,Arts,35,3470954,99170,20.1278
3202,2813,Alexandre Dumas,Male,1824,Paris,,France,Europe,48.8567,2.3508,Writer,Language,Humanities,50,882308,17646,24.6073
8233,7862,László Papp,Male,1926,Budapest,,Hungary,Europe,47.4925,19.051389999999998,Boxer,Individual Sports,Sports,28,201273,7188,21.3473
9172,5598,Vicente Fox,Male,1942,León,,Mexico,North America,19.433329999999998,-99.13333,Politician,Government,Institutions,40,2670698,66767,23.070999999999998
5816,4497,Ehud Olmert,Male,1945,Binyamina,,Israel,Asia,32.522220000000004,34.945,Politician,Government,Institutions,59,2100172,35596,23.6826
9313,1519,"William Thomson, 1st Baron Kelvin",Male,1824,Belfast,,United Kingdom,Europe,54.597,-5.93,Physicist,Natural Sciences,Science & Technology,58,1225161,21123,25.5105
6349,8290,Violetta Villas,Female,1938,Verviers,,Belgium,Europe,50.58333,5.85,Singer,Music,Arts,33,1562094,47336,20.7437
8782,10822,Skandar Keynes,Male,1991,London,,United Kingdom,Europe,51.53333,-0.16667,Actor,Film And Theatre,Arts,27,4994395,184978,15.5386
3755,3993,Jehoshaphat,Male,-896,Jerusalem,,Israel,Asia,,,Religious Figure,Religion,Institutions,29,585513,20190,23.9491
4390,980,Johann Heinrich Pestalozzi,Male,1746,Zürich,,Switzerland,Europe,47.36667,8.55,Social Activist,Activism,Public Figure,43,2875599,66874,26.0737
10160,6747,Grigoriy Ordzhonikidze,Male,1886,Kharagauli,,Georgia,Asia,42.16667,42.98333,Politician,Government,Institutions,26,206293,7934,22.3787
7319,10545,Daniela Hantuchová,Female,1983,Poprad,,Slovakia,Europe,49.05944,20.2975,Tennis Player,Individual Sports,Sports,37,1677007,45325,16.2654
7435,2637,Walter Raleigh,Male,1552,Devon,,United Kingdom,Europe,50.7,-3.8,Writer,Language,Humanities,41,4800379,117082,24.7104
2589,606,George Sand,Female,1804,Paris,,France,Europe,48.8567,2.3508,Writer,Language,Humanities,54,6164288,114153,26.7128
3427,683,Anacreon,Male,-570,Teos,,Turkey,Asia,38.17722,26.785,Writer,Language,Humanities,36,920518,25570,26.5579
5071,3800,Antonio Pigafetta,Male,1491,Vicenza,,Italy,Europe,45.55,11.55,Explorer,Explorers,Exploration,30,582102,19403,24.061999999999998
1001,4600,Pyotr Stolypin,Male,1862,Dresden,,Germany,Europe,51.03333,13.733329999999999,Politician,Government,Institutions,34,783902,23056,23.6268
1569,10635,Anna Kendrick,Female,1985,Portland,ME,United States,North America,43.66667,-70.26666999999999,Actor,Film And Theatre,Arts,35,12891368,368325,16.0091
4546,4082,Marwan I,Male,623,Other,,Unknown,Unknown,,,Politician,Government,Institutions,28,563677,20131,23.9004
3410,1046,Louis VII of France,Male,1120,Paris,,France,Europe,48.8567,2.3508,Politician,Government,Institutions,53,1278955,24131,25.988000000000003
2308,4645,Feodor Chaliapin,Male,1873,Kazan,,Russia,Europe,55.79028,49.13472,Singer,Music,Arts,37,506623,13693,23.6009
7409,5530,Oliver Goldsmith,Male,1730,Ballymahon,,Ireland,Europe,53.566669999999995,-7.766669999999999,Writer,Language,Humanities,36,772088,21447,23.1063
11233,1034,Paul Cézanne,Male,1839,Aix-en-Provence,,France,Europe,43.5263,5.44543,Painter,Fine Arts,Arts,86,14017943,162999,25.9988
58,7414,Ferid Murad,Male,1936,Whiting,IN,United States,North America,41.676109999999994,-87.49056,Physician,Medicine,Science & Technology,29,345832,11925,21.8736
4130,9010,Angela Gossow,Female,1974,Cologne,,Germany,Europe,50.93639,6.9527800000000015,Singer,Music,Arts,26,2583018,99347,19.5436
6967,10022,Mario Gomez,Male,1985,Riedlingen,,Germany,Europe,48.15528,9.47278,Soccer Player,Team Sports,Sports,49,9706968,198101,17.4826
11032,697,Sarah Bernhardt,Female,1844,Paris,,France,Europe,48.8567,2.3508,Actor,Film And Theatre,Arts,112,3431777,30641,26.5274
10058,4344,Patrick Swayze,Male,1952,Houston,TX,United States,North America,29.76278,-95.38306,Actor,Film And Theatre,Arts,63,27039978,429206,23.7696
2690,391,Khafra,Male,-2600,Other,,Unknown,Unknown,,,Politician,Government,Institutions,43,1257289,29239,27.2364
7801,5630,Markus Wolf,Male,1923,Hechingen,,Germany,Europe,48.35167,8.963330000000003,Public Worker,Government,Institutions,27,797205,29526,23.0501
5522,1766,Shepseskaf,Male,-2550,Other,,Unknown,Unknown,,,Politician,Government,Institutions,29,205459,7085,25.3106
2053,8859,Ross Brawn,Male,1954,Ashton-under-Lyne,,United Kingdom,Europe,53.4941,-2.1032,Engineer,Engineering,Science & Technology,26,1564881,60188,19.8471
855,2038,James D. Watson,Male,1928,Chicago,IL,United States,North America,41.83694000000001,-87.68472,Biologist,Natural Sciences,Science & Technology,60,2643695,44062,25.1001
9993,2906,Pontormo,Male,1494,Empoli,,Italy,Europe,43.71667,10.95,Painter,Fine Arts,Arts,32,788873,24652,24.5563
7824,9867,Thomas Gravesen,Male,1976,Vejle,,Denmark,Europe,55.71666999999999,9.53333,Soccer Player,Team Sports,Sports,26,1391957,53537,17.8487
6070,10166,Mika,Male,1983,Beirut,,Lebanon,Asia,33.88694,35.513059999999996,Musician,Music,Arts,41,2836446,69182,17.1888
9223,8892,Mike Portnoy,Male,1967,Long Island,NY,United States,North America,40.58605,-73.66775,Musician,Music,Arts,31,4879127,157391,19.7981
2539,8839,Lara Fabian,Female,1970,Etterbeek,,Belgium,Europe,50.83333,4.38333,Singer,Music,Arts,32,3951025,123470,19.8873
11056,2322,Hans Arp,Male,1886,Strasbourg,,France,Europe,48.58,7.75,Artist,Fine Arts,Arts,39,1613541,41373,24.8939
8089,10452,Virgilijus Alekna,Male,1972,Kupiškis,,Lithuania,Europe,55.833330000000004,24.96667,Athlete,Individual Sports,Sports,30,335074,11169,16.5123
8275,2621,William Henry Harrison,Male,1773,Charles City County,VA,United States,North America,37.35,-77.06,Politician,Government,Institutions,88,6307343,71674,24.7206
4027,11213,Veronica Campbell,Female,1982,Trelawny Parish,,Jamaica,North America,18.383329999999997,-77.63333,Athlete,Individual Sports,Sports,31,617302,19913,13.8358
10344,6647,Ignacy Łukasiewicz,Male,1822,Zaduszniki,,Poland,Europe,50.46667,21.46667,Chemist,Natural Sciences,Science & Technology,30,661209,22040,22.441
3219,8076,Bebeto,Male,1964,Salvador,,Brazil,South America,-12.97472,-38.47667,Soccer Player,Team Sports,Sports,36,2351366,65316,21.0644
3352,4773,Anton Raphael Mengs,Male,1728,Ústí nad Labem,,Czech Republic,Europe,50.65833,14.041670000000002,Painter,Fine Arts,Arts,28,426765,15242,23.5361
2206,2105,Edward the Elder,Male,870,Wessex,,United Kingdom,Europe,51.2,-2.0,Politician,Government,Institutions,41,1065368,25985,25.0549
9750,4774,Émilie du Châtelet,Female,1706,Paris,,France,Europe,48.8567,2.3508,Mathematician,Math,Science & Technology,28,987450,35266,23.5354
751,2961,Rem Koolhaas,Male,1944,Rotterdam,,Netherlands,Europe,51.91667,4.5,Architect,Design,Arts,38,2823768,74310,24.5251
1294,3783,Georgi Plekhanov,Male,1857,Lipetsk,,Russia,Europe,,,Philosopher,Philosophy,Humanities,42,493298,11745,24.0753
10576,2911,Thomas Hunt Morgan,Male,1866,Lexington,KY,United States,North America,38.02972000000001,-84.49472,Biologist,Natural Sciences,Science & Technology,47,1871678,39823,24.5554
5356,6048,Mohammed bin Rashid Al Maktoum,Male,1949,Dubai,,United Arab Emirates,Asia,24.95,55.333330000000004,Politician,Government,Institutions,37,5550089,150002,22.8261
1745,8980,Adam Copeland,Male,1973,Orangeville,,Canada,North America,43.91667,-80.11667,Wrestler,Individual Sports,Sports,35,4438070,126802,19.6016
8333,9908,Olga Korbut,Female,1955,Grodno,,Belarus,Europe,53.666669999999996,23.83333,Gymnast,Individual Sports,Sports,31,1128449,36402,17.7528
7671,8477,Eva Mendes,Female,1974,Miami,FL,United States,North America,25.77528,-80.20889,Actor,Film And Theatre,Arts,47,17930493,381500,20.477
11241,8721,Lennox Lewis,Male,1965,West Ham,,United Kingdom,Europe,,,Boxer,Individual Sports,Sports,28,7354617,262665,20.0764
7917,7175,Phil Hill,Male,1927,Miami,FL,United States,North America,25.77528,-80.20889,Racecar Driver,Individual Sports,Sports,30,664726,22158,22.0734
10706,9194,Andreas Möller,Male,1967,Frankfurt,,Germany,Europe,50.11667,8.68333,Soccer Player,Team Sports,Sports,28,1015446,36266,19.2092
8434,550,Constantius II,Male,317,Sirmium,,Serbia,Europe,44.98333,19.616670000000006,Politician,Government,Institutions,52,1206688,23206,26.8183
101,1385,Charles II of Spain,Male,1661,Madrid,,Spain,Europe,,,Politician,Government,Institutions,50,4122501,82450,25.6402
487,3491,Childebert II,Male,570,Other,,Unknown,Unknown,,,Politician,Government,Institutions,29,192986,6655,24.2337
10708,2109,Wilhelm Frick,Male,1877,Alsenz,,Germany,Europe,49.73083,7.81389,Politician,Government,Institutions,37,1483200,40086,25.0531
3459,5722,John Kerry,Male,1943,Aurora,CO,United States,North America,39.688,-104.68974,Politician,Government,Institutions,51,6545024,128334,22.9964
6808,490,Ibn Khaldun,Male,1332,Tunis,,Tunisia,Africa,36.8,10.18333,Historian,History,Humanities,83,4497412,54186,26.9884
5089,2231,Constantine III,Male,612,Other,,Unknown,Unknown,,,Politician,Government,Institutions,40,156240,3906,24.9674
2435,8013,Simon Cowell,Male,1959,London,,United Kingdom,Europe,51.46022,-0.12145,Producer,Business,Business & Law,32,16443969,513874,21.1563
4410,2542,Pope Benedict XIV,Male,1675,Bologna,,Italy,Europe,44.5075,11.351389999999999,Religious Figure,Religion,Institutions,59,1053284,17852,24.7623
8706,2178,Pope Benedict XII,Male,1280,Saverdun,,France,Europe,43.2356,1.5753,Religious Figure,Religion,Institutions,48,620198,12921,25.0007
4854,814,Gaozu of Han,Male,-255,Pei County,,China,Asia,,,Politician,Government,Institutions,29,2544633,87746,26.3039
110,9906,Yossi Benayoun,Male,1980,Dimona,,Israel,Asia,31.066670000000002,35.03333,Soccer Player,Team Sports,Sports,40,3714659,92866,17.7637
1533,1594,Werner Heisenberg,Male,1901,Würzburg,,Germany,Europe,49.78333,9.93333,Physicist,Natural Sciences,Science & Technology,76,7838972,103144,25.4437
2153,10367,Alison Krauss,Female,1971,Urbana-Champaign,IL,United States,North America,40.115,-88.27278000000004,Musician,Music,Arts,30,4089265,136309,16.7096
3929,6158,Theodore Kaczynski,Male,1942,Chicago,IL,United States,North America,41.72,-87.7025,Extremist,Outlaws,Public Figure,31,6444420,207885,22.7568
1228,8659,Irina Bokova,Female,1952,Sofia,,Bulgaria,Europe,42.7,23.33333,Diplomat,Government,Institutions,31,397453,12821,20.1836
1378,9748,Mathias Rust,Male,1968,Wedel,,Germany,Europe,53.583330000000004,9.7,Pilot,Military,Institutions,28,1414166,50506,18.0892
2018,226,Marcel Proust,Male,1871,Auteuil-Neuilly-Passy,,France,Europe,,,Writer,Language,Humanities,94,8846261,94109,27.8449
6003,6436,Paulo Mendes da Rocha,Male,1928,Vitória,,Brazil,South America,-20.31889,-40.33778,Architect,Design,Arts,26,547319,21051,22.5898
11116,2543,Utagawa Hiroshige,Male,1797,Tokyo,,Japan,Asia,,,Artist,Fine Arts,Arts,37,2151821,58157,24.7623
2811,2435,Ivan V of Russia,Male,1666,Moscow,,Russia,Europe,55.75,37.61667,Politician,Government,Institutions,43,1016819,23647,24.8203
1808,10245,Alexander Rybak,Male,1986,Minsk,,Belarus,Europe,53.9,27.566670000000002,Singer,Music,Arts,56,4771038,85197,17.0124
3639,1978,Fridtjof Nansen,Male,1861,Oslo,,Norway,Europe,59.95,10.75,Explorer,Explorers,Exploration,63,2222724,35281,25.1391
767,8470,Roger Federer,Male,1981,Basel,,Switzerland,Europe,47.56667,7.6,Tennis Player,Individual Sports,Sports,101,36800261,364359,20.4921
578,704,Cambyses II of Persia,Male,-600,Other,,Unknown,,,,Politician,Government,Institutions,47,922492,19627,26.5062
7182,1881,Hasdrubal Barca,Male,-245,Carthage,,Tunisia,Africa,36.858059999999995,10.33083,Military Personnel,Military,Institutions,29,341832,11787,25.2096
11306,751,Wassily Kandinsky,Male,1866,Moscow,,Russia,Europe,55.75,37.61667,Artist,Fine Arts,Arts,56,10503557,187564,26.4085
3933,1031,Antonio Gramsci,Male,1891,Newport,,Italy,Europe,39.76667,8.81667,Philosopher,Philosophy,Humanities,62,5142685,82947,26.0064
5371,3772,Joan Crawford,Female,1905,San Antonio,TX,United States,North America,29.41667,-98.5,Actor,Film And Theatre,Arts,46,7502647,163101,24.0813
8444,1755,Cyrus I of Anshan,Male,-600,Other,,Unknown,Unknown,,,Politician,Government,Institutions,28,340268,12152,25.3172
5918,9632,Mark Hughes,Male,1963,Ruabon,,United Kingdom,Europe,52.98698,-3.03971,Musician,Music,Arts,35,2436611,69617,18.3269
7643,9386,Briana Banks,Female,1978,Munich,,Germany,Europe,48.13333,11.56667,Pornographic Actor,Media Personality,Public Figure,26,7229286,278049,18.8086
2881,6824,Leonardo DiCaprio,Male,1974,Los Angeles,CA,United States,North America,34.05,-118.25,Actor,Film And Theatre,Arts,78,53901927,691050,22.3312
6633,6662,Kārlis Ulmanis,Male,1877,Latvia,,Latvia,Europe,,,Politician,Government,Institutions,26,302349,11629,22.4311
10768,8491,Ellen Pompeo,Female,1969,Boston,MA,United States,North America,42.40833,-71.05417,Actor,Film And Theatre,Arts,33,8332688,252506,20.4609
10322,5108,Stevie Ray Vaughan,Male,1954,Dallas,TX,United States,North America,32.77583,-96.79666999999999,Musician,Music,Arts,35,10344798,295566,23.3433
1619,10773,Lobsang Sangay,Male,1968,Darjeeling,,India,Asia,27.05,88.26666999999998,Politician,Government,Institutions,28,218792,7814,15.6661
10489,3671,Pope John XIV,Male,950,Pavia,,Italy,Europe,45.18333,9.15,Religious Figure,Religion,Institutions,45,288098,6402,24.1339
5424,1098,Giovanni Bellini,Male,1430,Venice,,Italy,Europe,45.4375,12.33583,Painter,Fine Arts,Arts,40,1667874,41697,25.9292
9944,3216,John Wesley,Male,1703,London,,United Kingdom,Europe,53.5167,-0.8167,Religious Figure,Religion,Institutions,37,3551177,95978,24.3812
6503,3631,Toni Morrison,Female,1931,Lorain,OH,United States,North America,41.44833,-82.16889,Writer,Language,Humanities,65,4132102,63571,24.1595
7287,4800,Ferenc Molnár,Male,1878,Budapest,,Hungary,Europe,47.4925,19.051389999999998,Writer,Language,Humanities,28,797409,28479,23.5206
760,10524,Carly Rae Jepsen,Female,1985,Mission,,Canada,North America,49.13369,-122.31116999999999,Singer,Music,Arts,36,16168959,449138,16.3224
8006,9247,David Arquette,Male,1971,Bentonville,VA,United States,North America,39.18333,-78.16667,Actor,Film And Theatre,Arts,29,8248931,284446,19.1104
9153,817,Francis I of France,Male,1494,Cognac,,France,Europe,45.7,-0.33,Politician,Government,Institutions,56,5965458,106526,26.3004
1880,1388,Arrian,Male,92,Nicomedia,,Turkey,Asia,40.76667,29.91667,Historian,History,Humanities,39,634997,16282,25.6347
10797,7204,Abdou Diouf,Male,1935,Louga,,Senegal,Africa,15.616670000000001,-16.21667,Politician,Government,Institutions,32,461021,14407,22.0502
233,5757,Lakshmi Mittal,Male,1950,Sadulpur,,India,Asia,28.64,75.38,Businessperson,Business,Business & Law,41,6141045,149782,22.9812
9051,920,Neil Armstrong,Male,1930,Auglaize County,OH,United States,North America,40.56,-84.22,Astronaut,Explorers,Exploration,121,27740982,229264,26.1661
5821,7098,Józef Gosławski,Male,1908,Polanówka,,Poland,Europe,,,Sculptor,Fine Arts,Arts,46,155610,3383,22.1411
4835,7049,Edmund Stoiber,Male,1941,Oberaudorf,,Germany,Europe,47.6475,12.17194,Politician,Government,Institutions,26,778816,29954,22.1726
8328,1152,Queen Victoria,Female,1819,London,,United Kingdom,Europe,51.50528,-0.18833,Politician,Government,Institutions,94,20003299,212801,25.8763
914,4358,Eugenio Montale,Male,1896,Genoa,,Italy,Europe,44.41111,8.932780000000003,Writer,Language,Humanities,60,2310707,38512,23.7606
9415,11222,Kateryna Bondarenko,Female,1986,Kryvyi Rih,,Ukraine,Europe,47.91667,33.25,Tennis Player,Individual Sports,Sports,29,310634,10712,13.7798
9327,3243,Hans Bethe,Male,1906,Strasbourg,,Germany,Europe,48.58,7.75,Physicist,Natural Sciences,Science & Technology,48,935988,19500,24.3661
3052,254,Heinrich Himmler,Male,1900,Munich,,Germany,Europe,48.13333,11.56667,Politician,Government,Institutions,70,17558545,250836,27.7085
2817,6013,Zubin Mehta,Male,1936,Mumbai,,India,Asia,18.975,72.82583000000002,Conductor,Music,Arts,35,1684325,48124,22.8448
3353,6983,Cannonball Adderley,Male,1928,Tampa,FL,United States,North America,27.968059999999998,-82.47639000000002,Musician,Music,Arts,26,1018697,39181,22.2221
8423,1090,Hendrik Lorentz,Male,1853,Arnhem,,Netherlands,Europe,51.98333,5.91667,Physicist,Natural Sciences,Science & Technology,72,1451687,20162,25.9382
4897,2935,Camilo José Cela,Male,1916,Padron,,Spain,Europe,,,Writer,Language,Humanities,58,1944279,33522,24.5392
3943,8690,Shohreh Aghdashloo,Female,1952,Tehran,,Iran,Asia,35.69611,51.42306,Actor,Film And Theatre,Arts,26,1555562,59829,20.1349
3022,3996,Heinz Fischer,Male,1938,Graz,,Austria,Europe,47.06667,15.433329999999998,Politician,Government,Institutions,70,1209495,17279,23.9484
6694,6725,Paul Muni,Male,1895,Lviv,,Ukraine,Europe,49.85,24.01667,Actor,Film And Theatre,Arts,31,867144,27972,22.394000000000002
11000,122,Hesiod,Male,-800,Other,,Greece,Europe,,,Writer,Language,Humanities,61,3804261,62365,28.5445
11239,6314,César Pelli,Male,1926,San Miguel de Tucumán ,,Argentina,South America,-26.816670000000002,-65.21667,Architect,Design,Arts,27,889399,32941,22.6523
9362,5804,Willard Libby,Male,1908,Grand Valley,UT,United States,North America,,,Chemist,Natural Sciences,Science & Technology,39,351383,9010,22.9595
2353,4063,Pietro Metastasio,Male,1698,Rome,,Italy,Europe,41.9,12.5,Writer,Language,Humanities,32,542249,16945,23.9122
9628,7693,Brian Mulroney,Male,1939,Baie-Comeau,,Canada,North America,49.21667,-68.15,Politician,Government,Institutions,34,1627683,47873,21.5652
3862,3725,François Arago,Male,1786,Estagel,,France,Europe,42.7733,2.6994,Physicist,Natural Sciences,Science & Technology,38,642321,16903,24.1053
4004,2271,Ptolemy XI Alexander II,Male,-100,Other,,Unknown,Unknown,,,Politician,Government,Institutions,30,170971,5699,24.9325
5057,3098,Quintus Curtius Rufus,Male,41,Other,,Unknown,Unknown,,,Historian,History,Humanities,28,253804,9064,24.4506
8408,2493,Tadeusz Kościuszko,Male,1746,Kosava,,Poland,Europe,,,Military Personnel,Military,Institutions,39,3247961,83281,24.7893
2869,10385,Philippe Senderos,Male,1985,Geneva,,Switzerland,Europe,46.2,6.15,Soccer Player,Team Sports,Sports,42,1934229,46053,16.678
5038,4096,Ibrahim Ferrer,Male,1927,San Luis,,Cuba,North America,20.18806,-75.84861,Singer,Music,Arts,26,935236,35971,23.8901
7866,5562,Sándor Kocsis,Male,1929,Budapest,,Hungary,Europe,47.4925,19.051389999999998,Soccer Player,Team Sports,Sports,29,703517,24259,23.090999999999998
4738,6620,Alexander Radishchev,Male,1749,Moscow,,Russia,Europe,55.75,37.61667,Writer,Language,Humanities,26,187267,7203,22.4541
4913,9060,Larry Sanger,Male,1968,Bellevue,WA,United States,North America,47.6,-122.16667,Inventor,Invention,Science & Technology,48,1604366,33424,19.457
632,6867,Sirimavo Bandaranaike,Female,1916,British Ceylon,,Sri Lanka,Asia,6.9,79.9,Politician,Government,Institutions,38,611886,16102,22.3112
880,10504,Jessie J,Female,1988,Chadwell Heath,,United Kingdom,Europe,51.5757,0.14400000000000002,Singer,Music,Arts,40,15883080,397077,16.3731
4407,5836,Max Perutz,Male,1914,Vienna,,Austria,Europe,48.2,16.366670000000006,Chemist,Natural Sciences,Science & Technology,35,348845,9967,22.9384
2888,1018,Henri Poincaré,Male,1854,Nancy,,France,Europe,48.6936,6.1846,Mathematician,Math,Science & Technology,63,2831983,44952,26.0215
10651,10451,Gotye,Male,1980,Bruges,,Belgium,Europe,51.21667,3.23333,Musician,Music,Arts,31,12252774,395251,16.5125
11332,600,Roger Bacon,Male,1214,Ilchester,,United Kingdom,Europe,51.0011,-2.6825,Philosopher,Philosophy,Humanities,48,2421713,50452,26.7188
10222,2725,Ambrogio Lorenzetti,Male,1290,Siena,,Italy,Europe,43.31861,11.33056,Painter,Fine Arts,Arts,30,773215,25774,24.6645
3364,835,Jacques Chirac,Male,1932,Paris,,France,Europe,48.8567,2.3508,Politician,Government,Institutions,96,6808856,70926,26.2714
1275,4891,Aaron Copland,Male,1900,New York,NY,United States,North America,40.69278,-73.99028,Composer,Music,Arts,39,2707719,69429,23.4741
1497,2230,Robert Capa,Male,1913,Budapest,,Hungary,Europe,47.4925,19.051389999999998,Journalist,Language,Humanities,43,3861463,89801,24.9704
7599,4301,Karl Mannheim,Male,1893,Budapest,,Hungary,Europe,47.4925,19.051389999999998,Sociologist,Social Sciences,Science & Technology,30,642850,21428,23.7891
1749,5215,Charles Scott Sherrington,Male,1857,Islington,,United Kingdom,Europe,51.544,-0.1027,Biologist,Natural Sciences,Science & Technology,37,395683,10694,23.2745
10107,9851,Karl Shuker,Male,1959,West Midlands,,United Kingdom,Europe,52.5,-1.83333,Biologist,Natural Sciences,Science & Technology,27,157157,5821,17.8704
33,7612,Mary Dyer,Female,1611,London,,United Kingdom,Europe,51.507220000000004,-0.1275,Social Activist,Activism,Public Figure,27,363708,13471,21.6573
4184,9024,Sandra Oh,Female,1971,Nepean,,Canada,North America,45.34167,-75.75833,Actor,Film And Theatre,Arts,26,6150190,236546,19.5173
1259,2809,Thorismund,Male,400,Other,,Unknown,Unknown,,,Politician,Government,Institutions,26,147093,5657,24.6104
9216,9372,Denzil Douglas,Male,1953,Saint Paul Capesterre,,Saint Kitts And Nevis,North America,17.39861,-62.82389000000001,Politician,Government,Institutions,26,180456,6941,18.8281
6579,6238,Denny Hulme,Male,1936,Motueka,,New Zealand,Oceania,-41.123329999999996,173.01471999999995,Racecar Driver,Individual Sports,Sports,27,541814,20067,22.7093
3187,2677,Marin Mersenne,Male,1588,Oizé,,France,Europe,47.8114,0.1042,Mathematician,Math,Science & Technology,39,505540,12963,24.6893
7540,6680,Aaron Ciechanover,Male,1947,Haifa,,Israel,Asia,32.81667,34.98333,Biologist,Natural Sciences,Science & Technology,35,379983,10857,22.4194
3277,1240,Melissus of Samos,Male,-500,Samos Island,,Greece,Europe,37.75,26.83333,Philosopher,Philosophy,Humanities,34,326096,9591,25.7606
1967,10854,Aaron Ramsey,Male,1990,Caerphilly,,United Kingdom,Europe,51.578,-3.218,Soccer Player,Team Sports,Sports,37,4332426,117093,15.4232
2482,7124,Rob Rensenbrink,Male,1947,Amsterdam,,Netherlands,Europe,52.36667,4.9,Soccer Player,Team Sports,Sports,26,514124,19774,22.1248
1602,10455,Narain Karthikeyan,Male,1977,Chennai,,India,Asia,13.08389,80.27,Racecar Driver,Individual Sports,Sports,36,1031296,28647,16.4964
4723,6454,Johan Neeskens,Male,1951,Heemstede,,Netherlands,Europe,52.35,4.62,Coach,Team Sports,Sports,35,1028022,29372,22.5771
5146,3537,Juan Ponce de León,Male,1474,Santervás de Campos,,Spain,Europe,42.21667,-5.1,Explorer,Explorers,Exploration,42,4825100,114883,24.2075
3560,5330,Wilhelm Liebknecht,Male,1826,Gießen,,Germany,Europe,50.58333,8.66667,Politician,Government,Institutions,28,371963,13284,23.2099
1918,3847,Umm Kulthum,Female,1904,El Senbellawein,,Egypt,Africa,30.87983,31.469479999999997,Singer,Music,Arts,64,1996334,31193,24.0394
9996,2731,Ulugh Beg,Male,1394,Soltaniyeh,,Iran,Asia,36.43472,48.7975,Astronomer,Natural Sciences,Science & Technology,41,970133,23662,24.6617
4625,10125,T.I.,Male,1980,Atlanta,GA,United States,North America,33.755,-84.39,Singer,Music,Arts,36,22573624,627045,17.2898
740,9704,Isla Fisher,Female,1976,Muscat,,Oman,Asia,23.61,58.54,Actor,Film And Theatre,Arts,30,14160123,472004,18.1959
10195,9876,Cicinho,Male,1980,Pradópolis,,Brazil,South America,-21.35944,-48.06556,Soccer Player,Team Sports,Sports,31,1933126,62359,17.8263
7021,6012,Lionel Jospin,Male,1937,Meudon,,France,Europe,48.8075,2.2403,Politician,Government,Institutions,41,1397091,34075,22.845
7863,1408,"Maximilian I, Holy Roman Emperor",Male,1459,Wiener Neustadt,,Austria,Europe,47.81667,16.25,Politician,Government,Institutions,52,1016731,19553,25.6087
8539,1348,Antonio Canova,Male,1757,Possagno,,Italy,Europe,45.85,11.88333,Artist,Fine Arts,Arts,42,2515904,59902,25.6679
3820,5893,Jules Grévy,Male,1807,Mont-sous-Vaudrey,,France,Europe,46.9811,5.6031,Politician,Government,Institutions,29,421781,14544,22.9077
7788,7384,Robert W. Holley,Male,1922,Urbana-Champaign,IL,United States,North America,40.10967,-88.20425,Chemist,Natural Sciences,Science & Technology,30,175324,5844,21.8989
2407,9582,Fabio Grosso,Male,1977,Rome,,Italy,Europe,41.9,12.5,Soccer Player,Team Sports,Sports,37,2314069,62542,18.4172
3743,6100,Léon Foucault,Male,1819,Paris,,France,Europe,48.8567,2.3508,Physicist,Natural Sciences,Science & Technology,41,4589811,111947,22.7929
10049,109,Democritus,Male,-460,Abdera,,Greece,Europe,40.95,24.98333,Philosopher,Philosophy,Humanities,72,9288258,129004,28.7332
1939,6359,Donald Pleasence,Male,1919,Worksop,,United Kingdom,Europe,53.3096,-1.1227,Actor,Film And Theatre,Arts,28,2422035,86501,22.6337
10127,4273,James V of Scotland,Male,1512,Linlithgow,,United Kingdom,Europe,55.9785,-3.60111,Politician,Government,Institutions,38,1479066,38923,23.8037
6657,8703,Stephen Chow,Male,1962,Hong Kong,,China,Asia,22.267,114.18799999999999,Actor,Film And Theatre,Arts,26,9086782,349492,20.1146
1232,776,Julian the Apostate,Male,330,Istanbul,,Turkey,Asia,41.01224000000001,28.976020000000002,Politician,Government,Institutions,52,1802103,34656,26.3726
1023,2842,Jacinto Benavente,Male,1866,Madrid,,Spain,Europe,40.4,-3.68333,Writer,Language,Humanities,60,888007,14800,24.5861
4092,4667,Constance of Sicily,Female,1154,Other,,Unknown,Unknown,,,Companion,Companions,Public Figure,26,285135,10967,23.5953
2437,8321,Robert Fisk,Male,1946,Maidstone,,United Kingdom,Europe,51.272,0.529,Writer,Language,Humanities,31,931449,30047,20.6919
6966,6239,Joseph Banks,Male,1743,London,,United Kingdom,Europe,51.507220000000004,-0.1275,Biologist,Natural Sciences,Science & Technology,33,643171,19490,22.7089
4463,11075,Linda Maria Baros,Female,1981,Bucharest,,Romania,Europe,44.4325,26.10389,Writer,Language,Humanities,29,64649,2229,14.617
4516,4281,Edgar Ætheling,Male,1051,Hungary,,Hungary,Europe,47.43333,19.25,Nobleman,Government,Institutions,35,573396,16383,23.798000000000002
6370,4538,Joe DiMaggio,Male,1914,San Francisco-Bay Area,CA,United States,North America,38.01944,-122.13417,Baseball Player,Team Sports,Sports,27,6259209,231823,23.6612
7127,1739,Aleksandr Solzhenitsyn,Male,1918,Kislovodsk,,Russia,Europe,43.91667,42.71667,Writer,Language,Humanities,91,4535988,49846,25.3365
6162,6130,Jean-Claude Trichet,Male,1942,Lyon,,France,Europe,45.76,4.84,Economist,Social Sciences,Science & Technology,31,1096095,35358,22.7754
7756,4877,Lennart Meri,Male,1929,Tallinn,,Estonia,Europe,59.437219999999996,24.745279999999998,Politician,Government,Institutions,39,402718,10326,23.4816
4236,8722,Sabrina,Female,1968,Genoa,,Italy,Europe,44.41111,8.932780000000003,Singer,Music,Arts,27,3581003,132630,20.0725
8056,8406,Hans Krankl,Male,1953,Vienna,,Austria,Europe,48.2,16.366670000000006,Coach,Team Sports,Sports,28,712628,25451,20.5786
3890,6809,James Joseph Sylvester,Male,1814,London,,United Kingdom,Europe,51.507220000000004,-0.1275,Mathematician,Math,Science & Technology,26,277086,10657,22.3389
8196,8015,Giuseppe Tornatore,Male,1956,Bagheria,,Italy,Europe,38.08333,13.5,Film Director,Film And Theatre,Arts,36,1631335,45315,21.1535
484,7261,Robert Gates,Male,1943,Wichita,KS,United States,North America,37.68889,-97.33610999999999,Politician,Government,Institutions,37,3088170,83464,22.0044
2582,6404,Marcellin Berthelot,Male,1827,Paris,,France,Europe,48.8567,2.3508,Chemist,Natural Sciences,Science & Technology,26,370260,14241,22.6082
9010,4590,Mikhail Frunze,Male,1885,Bishkek,,Kyrgyzstan,Asia,42.87472,74.61222,Military Personnel,Military,Institutions,36,503493,13986,23.6331
1884,11252,Elena Vesnina,Female,1986,Lviv,,Ukraine,Europe,49.85,24.01667,Tennis Player,Individual Sports,Sports,28,530387,18942,13.5049
8858,3204,Janusz Korczak,Male,1878,Warsaw,,Poland,Europe,52.23333,21.01667,Writer,Language,Humanities,40,3551467,88787,24.3857
38,878,Eleanor of Aquitaine,Female,1122,Bordeaux,,France,Europe,44.84,-0.58,Companion,Companions,Public Figure,46,4570041,99349,26.221
7989,5959,Evo Morales,Male,1959,Orinoca Canton,,Bolivia,South America,-18.96667,-67.25,Politician,Government,Institutions,72,4297831,59692,22.8721
4688,7260,Herbert C. Brown,Male,1912,London,,United Kingdom,Europe,51.507220000000004,-0.1275,Chemist,Natural Sciences,Science & Technology,33,271655,8232,22.0046
7629,8944,Eveline Widmer-Schlumpf,Female,1956,Felsberg,,Switzerland,Europe,46.83333,9.46667,Politician,Government,Institutions,28,691447,24695,19.692
9136,1678,James I of England,Male,1566,Edinburgh ,,United Kingdom,Europe,55.948609999999995,-3.20083,Politician,Government,Institutions,65,4471830,68797,25.3842
850,4927,James Hutton,Male,1726,Edinburgh,,United Kingdom,Europe,55.95306,-3.1888900000000002,Geologist,Natural Sciences,Science & Technology,38,1201767,31625,23.4502
3047,9079,Bradley Cooper,Male,1975,Philadelphia,PA,United States,North America,40.1,-75.09971999999998,Actor,Film And Theatre,Arts,36,25936636,720462,19.4216
8827,8644,Youri Djorkaeff,Male,1968,Lyon,,France,Europe,45.76,4.84,Soccer Player,Team Sports,Sports,32,1862110,58191,20.2091
6589,4365,Multatuli,Male,1820,Amsterdam,,Netherlands,Europe,52.36667,4.9,Writer,Language,Humanities,34,684141,20122,23.759
1096,9641,Sally Ride,Female,1951,Los Angeles,CA,United States,North America,34.05,-118.25,Astronaut,Explorers,Exploration,38,2830104,74476,18.3049
9791,3400,Charibert I,Male,517,Other,,Unknown,Unknown,,,Politician,Government,Institutions,32,211923,6623,24.285999999999998
5922,491,Shem,Male,-3500,Other,,Unknown,Unknown,,,Religious Figure,Religion,Institutions,38,1623581,42726,26.9857
9358,7684,`Abdu'l-Bahá,Male,1844,Tehran,,Iran,Asia,35.69611,51.42306,Religious Figure,Religion,Institutions,28,472029,16858,21.5729
1315,9197,Javier Aguirre,Male,1958,Mexico City,,Mexico,North America,19.433329999999998,-99.13333,Coach,Team Sports,Sports,26,901400,34669,19.2028
6238,9318,Nawaz Sharif,Male,1949,Lahore,,Pakistan,Asia,31.54972,74.34361,Politician,Government,Institutions,36,1961727,54492,18.9482
4051,5166,Avram Hershko,Male,1937,Karcag,,Hungary,Europe,47.31667,20.933329999999998,Chemist,Natural Sciences,Science & Technology,36,362160,10060,23.3088
5015,2361,Benny Hill,Male,1924,Southampton,,United Kingdom,Europe,50.9,-1.4,Actor,Film And Theatre,Arts,40,4766732,119168,24.8711
9399,3037,Rudolf Carnap,Male,1891,Ronsdorf,,Germany,Europe,51.23333,7.2,Philosopher,Philosophy,Humanities,36,915446,25429,24.4819
697,6139,Dolph Lundgren,Male,1957,Spånga,,Sweden,Europe,59.380280000000006,17.89333,Actor,Film And Theatre,Arts,42,15392092,366478,22.7739
10335,552,Leonid Brezhnev,Male,1906,Dniprodzerzhynsk,,Ukraine,Europe,48.51667,34.61667,Politician,Government,Institutions,76,7293899,95972,26.8163
6761,1679,Haruki Murakami,Male,1949,Kyoto,,Japan,Asia,34.935559999999995,135.76138999999998,Writer,Language,Humanities,54,14583103,270057,25.3836
5035,5863,Robert Rauschenberg,Male,1925,Port Arthur,TX,United States,North America,29.885,-93.94,Painter,Fine Arts,Arts,29,3010732,103818,22.9258
5328,2398,Ted Bundy,Male,1946,Burlington,VT,United States,North America,44.47583,-73.21194,Extremist,Outlaws,Public Figure,38,21414527,563540,24.8495
10734,1826,Pedro Calderón de la Barca,Male,1600,Madrid,,Spain,Europe,40.4,-3.68333,Writer,Language,Humanities,48,2958051,61626,25.2548
9311,9095,Alizée,Female,1984,Ajaccio,,France,Europe,41.9267,8.7369,Singer,Music,Arts,50,9278286,185566,19.3934
3437,6671,René Laennec,Male,1781,Quimper,,France,Europe,47.9967,-4.0964,Physician,Medicine,Science & Technology,33,518616,15716,22.4221
3945,593,Andrea Palladio,Male,1508,Padua,,Italy,Europe,45.41667,11.86667,Architect,Design,Arts,46,3053706,66385,26.7303
1896,585,Nefertari,Female,-1290,Other,,Egypt,Africa,,,Companion,Companions,Public Figure,33,1855245,56220,26.7417
8008,4420,Pär Lagerkvist,Male,1891,Växjö,,Sweden,Europe,56.87694000000001,14.809170000000002,Writer,Language,Humanities,59,808222,13699,23.728
8452,4126,Ryszard Kapuściński,Male,1932,Pinsk,,Belarus,Europe,52.11667,26.1,Writer,Language,Humanities,34,1573377,46276,23.8725
2546,4854,Francis Beaufort,Male,1774,Navan,,Ireland,Europe,53.6528,-6.6814,Geologist,Natural Sciences,Science & Technology,28,290404,10372,23.4953
2142,1053,Alcaeus,Male,-620,Mytilene,,Greece,Europe,39.1,26.55,Writer,Language,Humanities,37,512525,13852,25.9827
4591,5875,George C. Scott,Male,1927,Wise,VA,United States,North America,36.97806,-82.57694000000002,Actor,Film And Theatre,Arts,38,3387195,89137,22.9183
1040,8814,David Robinson,Male,1965,Key West,FL,United States,North America,24.55917,-81.78403,Basketball Player,Team Sports,Sports,32,999221,31226,19.9366
424,2772,Arsinoe II of Egypt,Female,-316,Egypt,,Egypt,Africa,26.0,30.0,Companion,Companions,Public Figure,29,204311,7045,24.6265
10625,8175,Bill Goldberg,Male,1966,Tulsa,OK,United States,North America,36.13139,-95.93722,Wrestler,Individual Sports,Sports,27,11032939,408627,20.9066
3856,9196,Ricardo Quaresma,Male,1983,Vila Nova de Famalicão,,Portugal,Europe,41.4,-8.51667,Soccer Player,Team Sports,Sports,41,8251062,201245,19.2032
2023,8465,Ahmed Ouyahia,Male,1952,Iboudraren,,Algeria,Africa,,,Politician,Government,Institutions,31,410383,13238,20.4974
3320,10751,Emina Jahović,Female,1982,Novi Pazar,,Serbia,Europe,43.15,20.51667,Singer,Music,Arts,35,865495,24728,15.7329
2677,5998,Alexander Alexandrovich Friedman,Male,1888,Saint Petersburg,,Russia,Europe,59.95,30.3,Mathematician,Math,Science & Technology,35,384951,10999,22.851999999999997
10092,4196,Rainer Werner Fassbinder,Male,1945,Bad Wörishofen,,Germany,Europe,48.005829999999996,10.59694,Film Director,Film And Theatre,Arts,38,3018482,79434,23.8405
7949,7360,Dost Mohammad Khan,Male,1793,Kandahar,,Afghanistan,Asia,31.61667000000001,65.71667,Politician,Government,Institutions,27,265137,9820,21.9259
1908,9767,Kaley Cuoco,Female,1985,Camarillo,CA,United States,North America,34.23333,-119.03333,Actor,Film And Theatre,Arts,35,33795489,965585,18.0426
275,4531,Just Fontaine,Male,1933,Marrakesh,,Morocco,Africa,31.63,-8.00889,Soccer Player,Team Sports,Sports,38,1571597,41358,23.6659
4165,4002,Käthe Kollwitz,Female,1867,Kaliningrad,,Russia,Europe,54.71666999999999,20.51667,Artist,Fine Arts,Arts,35,1680696,48020,23.9458
10300,6513,Michael Schumacher,Male,1969,Hürth,,Germany,Europe,50.8775,6.8761100000000015,Racecar Driver,Individual Sports,Sports,91,18467043,202935,22.5389
10140,10687,K'naan,Male,1978,Mogadishu,,Somalia,Africa,2.03333,45.35,Musician,Music,Arts,29,4237419,146118,15.909
4824,7777,Shirley Bassey,Female,1937,Tiger Bay,,United Kingdom,Europe,51.458,-3.17,Singer,Music,Arts,31,4086675,131828,21.4668
546,10823,Yi So-yeon,Female,1978,Gwangju,,South Korea,Asia,35.16667,126.91667,Astronaut,Explorers,Exploration,30,231940,7731,15.5364
7984,2865,George Eliot,Female,1819,Nuneaton,,United Kingdom,Europe,52.523,-1.4683,Writer,Language,Humanities,49,3699355,75497,24.5741
5360,4139,Billy Joel,Male,1949,New York,NY,United States,North America,40.8373,-73.88600000000002,Singer,Music,Arts,37,11157591,301557,23.8659
4650,5079,Recep Tayyip Erdoğan,Male,1954,Istanbul,,Turkey,Asia,,,Politician,Government,Institutions,76,8022485,105559,23.3635
4182,1429,Charles II of England,Male,1630,London,,United Kingdom,Europe,51.50472,-0.1375,Politician,Government,Institutions,59,7773366,131752,25.5853
4026,8453,Judy Holliday,Female,1921,New York,NY,United States,North America,40.7127,-74.0059,Actor,Film And Theatre,Arts,26,951555,36598,20.51
9723,7892,Roy Emerson,Male,1936,Blackbutt,,Australia,Oceania,-26.883329999999997,152.1,Tennis Player,Individual Sports,Sports,26,670277,25780,21.3076
7036,3884,Eutropius,Male,-400,Other,,Unknown,Unknown,,,Historian,History,Humanities,26,96397,3708,24.0153
8852,3385,Gérard Depardieu,Male,1948,Châteauroux,,France,Europe,46.8103,1.6911,Actor,Film And Theatre,Arts,59,10240317,173565,24.2924
4156,356,Nikola Tesla,Male,1856,Smiljan,,Croatia,Europe,44.56667,15.316670000000002,Inventor,Invention,Science & Technology,111,42369769,381710,27.3472
2733,11208,Christian Eriksen,Male,1992,Middelfart,,Denmark,Europe,55.49861,9.744439999999999,Soccer Player,Team Sports,Sports,29,2315614,79849,13.8719
10976,10073,Lassana Diarra,Male,1985,Paris,,France,Europe,48.8567,2.3508,Soccer Player,Team Sports,Sports,41,4017162,97980,17.38
2316,11253,Chris Diamantopoulos,Male,1975,Toronto,,Canada,North America,43.7,-79.4,Actor,Film And Theatre,Arts,26,1542366,59322,13.4904
2,2810,"Matthias, Holy Roman Emperor",Male,1557,Vienna,,Austria,Europe,48.2,16.366670000000006,Politician,Government,Institutions,43,397675,9248,24.6088
10745,991,Philip IV of Spain,Male,1605,Valladolid,,Spain,Europe,41.63333,-4.71667,Politician,Government,Institutions,55,3051606,55484,26.055999999999997
9668,8914,Sergei Bubka,Male,1963,Luhansk,,Ukraine,Europe,48.56667,39.3,Politician,Government,Institutions,42,1958699,46636,19.7573
4235,689,Heraclius,Male,575,Cappadocia,,Turkey,Asia,38.65833,34.853609999999996,Politician,Government,Institutions,57,1657074,29071,26.5511
3227,5807,Le Duc Tho,Male,1911,Hà Nam Province,,Vietnam,Asia,20.58333,106.0,Social Activist,Activism,Public Figure,36,1088510,30236,22.9572
9692,2012,François Couperin,Male,1668,Paris,,France,Europe,48.8567,2.3508,Composer,Music,Arts,39,943769,24199,25.1206
7030,5134,Peter O'Toole,Male,1932,Connemara,,Ireland,Europe,53.5,-9.75,Actor,Film And Theatre,Arts,45,7293617,162080,23.3267
7937,4189,Bill Murray,Male,1950,Chicago,IL,United States,North America,42.077220000000004,-87.72361,Actor,Film And Theatre,Arts,50,13837184,276744,23.8437
5881,10994,Juan Mónaco,Male,1984,Tandil,,Argentina,South America,-37.31667,-59.13333000000001,Tennis Player,Individual Sports,Sports,28,667282,23832,14.9022
9034,5103,Alain Prost,Male,1955,Lorette,Loire,France,Europe,45.5128,4.5819,Racecar Driver,Individual Sports,Sports,49,4241269,86557,23.3483
10796,5930,James Callaghan,Male,1912,Portsmouth,,United Kingdom,Europe,50.81667,-1.08333,Politician,Government,Institutions,53,1766429,33329,22.886999999999997
8287,9620,Blake Lively,Female,1987,Los Angeles,CA,United States,North America,34.17333,-118.55306000000002,Actor,Film And Theatre,Arts,42,28951079,689311,18.3438
9075,2567,Babur,Male,1483,Andijan,,Uzbekistan,Asia,40.78333,72.33333,Politician,Government,Institutions,54,3182197,58930,24.7514
8756,11314,Shane Dawson,Male,1988,Los Angeles,CA,United States,North America,33.76833,-118.19556000000001,Actor,Film And Theatre,Arts,27,2247314,83234,12.3796
1487,7335,Jean Chrétien,Male,1934,Shawinigan,,Canada,North America,46.56667,-72.75,Politician,Government,Institutions,39,1595816,40918,21.9509
4322,4521,Farouk of Egypt,Male,1920,Alexandria,,Egypt,Africa,30.05,31.23333,Politician,Government,Institutions,36,2135915,59331,23.6703
3644,11089,David Alaba,Male,1992,Vienna,,Austria,Europe,48.2,16.366670000000006,Soccer Player,Team Sports,Sports,30,3076766,102559,14.5727
1559,7174,Francis Peyton Rous,Male,1879,Baltimore,MD,United States,North America,39.28333,-76.61667,Physician,Medicine,Science & Technology,29,213634,7367,22.0796
8730,6220,Franz Berwald,Male,1796,Stockholm,,Sweden,Europe,59.32944000000001,18.06861,Musician,Music,Arts,27,259390,9607,22.7176
5813,5779,Niki Lauda,Male,1949,Vienna,,Austria,Europe,48.2,16.366670000000006,Racecar Driver,Individual Sports,Sports,47,8587132,182705,22.9713
5942,8516,Asif Ali Zardari,Male,1955,Karachi,,Pakistan,Asia,24.86,67.01,Politician,Government,Institutions,56,3223390,57561,20.4142
5331,7930,Maurice Gibb,Male,1949,Douglas,,Isle Of Man,Europe,54.14521,-4.48172,Musician,Music,Arts,27,5016489,185796,21.2584
7665,2004,Pope Martin I,Male,600,Genazzano ,,Italy,Europe,42.78333,12.41667,Religious Figure,Religion,Institutions,50,397844,7957,25.1265
4494,6795,Vojislav Koštunica,Male,1944,Belgrade,,Serbia,Europe,44.81667,20.46667,Politician,Government,Institutions,40,533738,13343,22.3513
10169,1764,Anthony Quinn,Male,1915,Chihuahua,,Mexico,North America,28.635279999999998,-106.08888999999999,Actor,Film And Theatre,Arts,62,5966825,96239,25.313000000000002
2728,4225,Buenaventura Durruti,Male,1896,León,,Spain,Europe,42.60556,-5.57,Social Activist,Activism,Public Figure,31,1016067,32776,23.8272
3987,10147,Simão Sabrosa,Male,1979,Vila Real,,Portugal,Europe,,,Soccer Player,Team Sports,Sports,34,2337269,68743,17.2457
2498,4738,Arrigo Boito,Male,1842,Padua,,Italy,Europe,45.41667,11.86667,Writer,Language,Humanities,32,507431,15857,23.5595
3714,8078,Ilan Ramon,Male,1954,Ramat Gan,,Israel,Asia,32.08333,34.81667,Astronaut,Explorers,Exploration,32,1212532,37892,21.0615
3366,9946,Hermann Maier,Male,1972,Altenmarkt im Pongau,,Austria,Europe,47.36667,13.416670000000002,Skier,Individual Sports,Sports,29,1346848,46443,17.6877
7434,2225,Ernst Jünger,Male,1895,Heidelberg,,Germany,Europe,49.41667,8.71667,Writer,Language,Humanities,34,1840248,54125,24.9725
8834,3466,"Philip II, Duke of Burgundy",Male,1342,Pontoise,,France,Europe,49.0516,2.1017,Nobleman,Government,Institutions,27,575849,21328,24.244
1758,9587,Hayden Panettiere,Female,1989,Lower Hudson Valley,NY,United States,North America,41.011109999999995,-73.91333,Actor,Film And Theatre,Arts,47,25278763,537846,18.4038
2264,3148,Francisco de Orellana,Male,1511,Trujillo,,Spain,Europe,39.46528,-5.87889,Explorer,Explorers,Exploration,34,1008253,29655,24.4211
8697,255,Pindar,Male,-522,Boeotia,,Greece,Europe,38.41667,23.08333,Writer,Language,Humanities,55,2118829,38524,27.7061
8168,2828,Pope Nicholas I,Male,820,Rome,,Italy,Europe,41.9,12.5,Religious Figure,Religion,Institutions,51,384737,7544,24.5937
2752,970,Joseph Fourier,Male,1768,Auxerre,,France,Europe,47.7986,3.5672,Mathematician,Math,Science & Technology,86,1786471,20773,26.0915
3571,2656,Thomas Huxley,Male,1825,Ealing,,United Kingdom,Europe,51.5111,-0.3058,Biologist,Natural Sciences,Science & Technology,44,1875587,42627,24.7006
2072,6374,Millvina Dean,Female,1912,Branscombe,,United Kingdom,Europe,50.68899999999999,-3.1397,Celebrity,Media Personality,Public Figure,29,3137591,108193,22.6256
9800,5436,Taro Aso,Male,1940,Iizuka,,Japan,Asia,33.65,130.68333,Politician,Government,Institutions,54,5763327,106728,23.1511
549,10416,John O'Shea,Male,1981,Waterford,,Ireland,Europe,52.25667,-7.129169999999999,Soccer Player,Team Sports,Sports,46,1716472,37315,16.5983
9215,8447,Bob Sinclar,Male,1969,Bois-Colombes,,France,Europe,48.9175,2.2683,Musician,Music,Arts,32,4482060,140064,20.5182
2889,9818,Paulo Wanchope,Male,1976,Heredia,,Costa Rica,North America,9.99639,-84.11667,Soccer Player,Team Sports,Sports,31,711257,22944,17.9398
4196,6717,Steve Buscemi,Male,1957,New York,NY,United States,North America,40.69278,-73.99028,Actor,Film And Theatre,Arts,45,12290114,273114,22.3996
5405,5519,Wilhelm Cuno,Male,1876,Suhl,,Germany,Europe,50.61056,10.693060000000001,Politician,Government,Institutions,31,261667,8441,23.1125
588,2052,Pope Benedict II,Male,635,Rome,,Italy,Europe,41.9,12.5,Religious Figure,Religion,Institutions,53,348590,6577,25.0926
1638,6296,Alexander John Cuza,Male,1820,Bârlad,,Romania,Europe,46.21667,27.66667,Politician,Government,Institutions,29,1307563,45088,22.6641
7262,10365,Rodrigo Palacio,Male,1982,Bahía Blanca,,Argentina,South America,-38.71667,-62.26667,Soccer Player,Team Sports,Sports,27,2784963,103147,16.7155
3134,11016,Magdalena Neuner,Female,1987,Garmisch-Partenkirchen,,Germany,Europe,47.5,11.08333,Athlete,Individual Sports,Sports,30,2042341,68078,14.8208
11121,9613,Ben Johnson,Male,1961,Falmouth,,Jamaica,North America,18.49,-77.661,Athlete,Individual Sports,Sports,29,438206,15111,18.3595
6009,7036,William Henry Pickering,Male,1858,Boston,MA,United States,North America,42.358059999999995,-71.06361,Astronomer,Natural Sciences,Science & Technology,26,108803,4185,22.18
2210,1178,Scipio Aemilianus Africanus,Male,-185,Other,,Unknown,Unknown,,,Politician,Government,Institutions,32,654309,20447,25.8366
11295,9404,Edwin Moses,Male,1955,Dayton,OH,United States,North America,39.75944000000001,-84.19167,Athlete,Individual Sports,Sports,26,690312,26550,18.7727
2184,6398,Franz Graf Conrad von Hötzendorf,Male,1852,Penzing (Vienna),,Austria,Europe,48.21667,16.24861,Military Personnel,Military,Institutions,26,313653,12064,22.6121
8015,9963,David Silva,Male,1986,Arguineguín,,Spain,Europe,27.76222000000001,-15.68361,Soccer Player,Team Sports,Sports,52,6727011,129366,17.6522
5674,11144,Rolando Jorge Pires da Fonseca,Male,1985,São Vicente,,Cape Verde,Europe,16.85,-24.96667,Soccer Player,Team Sports,Sports,26,613589,23600,14.2345
8722,9190,Michael S. Dell,Male,1965,Houston,TX,United States,North America,29.76278,-95.38306,Businessperson,Business,Business & Law,34,3021594,88870,19.2236
10911,11271,Sam Querrey,Male,1987,San Francisco-Bay Area,CA,United States,North America,37.78333,-122.41667,Tennis Player,Individual Sports,Sports,26,626737,24105,13.3488
10230,7961,Bashar al-Assad,Male,1965,Damascus,,Syria,Asia,33.513000000000005,36.292,Politician,Government,Institutions,70,10920024,156000,21.2137
6133,9023,Bryan Singer,Male,1965,New York,NY,United States,North America,40.7127,-74.0059,Film Director,Film And Theatre,Arts,33,3120538,94562,19.5176
8074,7165,Helena Bonham Carter,Female,1966,Golders Green,,United Kingdom,Europe,51.5734,-0.1982,Actor,Film And Theatre,Arts,47,23498486,499968,22.0833
3228,8443,Adam Clayton,Male,1960,Chinnor,,United Kingdom,Europe,51.702,-0.9109999999999999,Musician,Music,Arts,33,2228902,67542,20.5289
5449,5809,Feodor Felix Konrad Lynen,Male,1911,Munich,,Germany,Europe,48.13333,11.56667,Chemist,Natural Sciences,Science & Technology,32,183877,5746,22.9564
10259,1703,Max Stirner,Male,1806,Bayreuth,,Germany,Europe,49.94806,11.578330000000001,Philosopher,Philosophy,Humanities,37,1414732,38236,25.3653
2135,11118,Nicolás Otamendi,Male,1988,Buenos Aires,,Argentina,South America,-34.60333,-58.38166999999999,Soccer Player,Team Sports,Sports,28,965830,34494,14.4071
3920,10791,Katie Leung,Female,1987,Motherwell,,United Kingdom,Europe,55.78396,-3.9852199999999995,Actor,Film And Theatre,Arts,31,2542894,82029,15.6239
7373,7508,Zahi Hawass,Male,1947,Damietta,,Egypt,Africa,31.41667,31.816670000000002,Archaeologist,Natural Sciences,Science & Technology,31,1349708,43539,21.7824
6327,227,Plotinus,Male,204,Lycopolis,,Egypt,Africa,31.08333,30.95,Philosopher,Philosophy,Humanities,53,2452095,46266,27.8309
2932,10885,Chris Wolstenholme,Male,1978,Rotherham,,United Kingdom,Europe,53.4301,-1.3572,Musician,Music,Arts,29,2219928,76549,15.3333
3097,9245,Alejandro Amenábar,Male,1972,Santiago,,Chile,Europe,-33.45,-70.66667,Film Director,Film And Theatre,Arts,30,1760279,58676,19.1119
1555,10662,Chauncey Billups,Male,1976,Denver,CO,United States,North America,39.76185,-104.88111,Basketball Player,Team Sports,Sports,27,2617789,96955,15.9489
2984,4195,Willebrord Snellius,Male,1580,Leiden,,Netherlands,Europe,52.16667,4.4833300000000005,Mathematician,Math,Science & Technology,31,313951,10127,23.8412
4942,4702,Vuk Stefanović Karadžić,Male,1787,Tršić,,Serbia,Europe,44.5081,19.2689,Writer,Language,Humanities,36,1054781,29299,23.5785
3870,4359,Hjalmar Branting,Male,1860,Stockholm,,Sweden,Europe,59.32944000000001,18.06861,Social Activist,Activism,Public Figure,42,390249,9292,23.7604
1261,5448,Walter Haworth,Male,1883,Chorley,,United Kingdom,Europe,53.653,-2.6319999999999997,Chemist,Natural Sciences,Science & Technology,37,186880,5051,23.1437
2240,6127,John Hume,Male,1937,Derry,,United Kingdom,Europe,54.9958,-7.3074,Politician,Government,Institutions,38,585083,15397,22.7781
4785,10387,Robert Lewandowski,Male,1988,Warsaw,,Poland,Europe,52.23333,21.01667,Soccer Player,Team Sports,Sports,45,7907658,175726,16.671
1712,5752,Walter Gropius,Male,1883,Berlin,,Germany,Europe,52.51667,13.383329999999999,Architect,Design,Arts,57,5902170,103547,22.984
8449,8339,Dave Gahan,Male,1962,North Weald,,United Kingdom,Europe,51.7193,0.16284,Singer,Music,Arts,31,3978257,128331,20.6739
4223,609,Juvenal,Male,100,Aquino,,Italy,Europe,41.5,13.7,Writer,Language,Humanities,37,1520003,41081,26.7066
1844,4880,Howard Carter,Male,1874,London,,United Kingdom,Europe,51.5004,-0.1909,Archaeologist,Natural Sciences,Science & Technology,53,6778313,127893,23.4789
5009,7865,Dietrich Fischer-Dieskau,Male,1925,Berlin,,Germany,Europe,52.51667,13.383329999999999,Singer,Music,Arts,29,862165,29730,21.3436
2825,494,Robert De Niro,Male,1943,New York,NY,United States,North America,40.73389,-74.00111,Actor,Film And Theatre,Arts,82,31396706,382887,26.9819
5628,504,Fu Hsi,Male,-2900,Chengji,,China,Asia,,,Politician,Government,Institutions,32,1289617,40301,26.9419
8200,6452,Yukio Hatoyama,Male,1947,Bunkyō,,Japan,Asia,35.71667,139.75,Politician,Government,Institutions,55,5694881,103543,22.5772
8630,152,Nostradamus,Male,1503,Saint-Rémy-de-Provence,,France,Europe,43.79,4.8325,Writer,Language,Humanities,74,22719309,307018,28.2818
11100,977,Gregor Mendel,Male,1822,Hynčice,,Czech Republic,Europe,49.61889,17.835279999999994,Biologist,Natural Sciences,Science & Technology,79,20214907,255885,26.0827
7734,1335,Pope Julius I,Male,300,Rome,,Italy,Europe,41.9,12.5,Religious Figure,Religion,Institutions,54,535125,9910,25.6838
3464,8939,Coolio,Male,1963,Los Angeles,CA,United States,North America,33.89667,-118.225,Singer,Music,Arts,26,5702896,219342,19.704
10851,16,Charlemagne,Male,742,Liège,,Belgium,Europe,,,Politician,Government,Institutions,116,26626252,229537,30.4837
11109,10252,Alessandro Petacchi,Male,1974,La Spezia,,Italy,Europe,44.1,9.81667,Cyclist,Individual Sports,Sports,27,660393,24459,16.9882
6586,9146,Simon Pegg,Male,1970,Brockworth,,United Kingdom,Europe,51.85,-2.15,Writer,Language,Humanities,31,11129845,359027,19.2964
3064,9631,Mike Huckabee,Male,1955,Hope,AR,United States,North America,33.66778,-93.59,Politician,Government,Institutions,35,3111423,88898,18.3299
6899,9766,Chad Kroeger,Male,1974,Hanna,,Canada,North America,51.638329999999996,-111.94193999999999,Singer,Music,Arts,28,6898352,246370,18.0429
3705,213,Antonio Vivaldi,Male,1678,Venice,,Italy,Europe,45.4375,12.33583,Composer,Music,Arts,103,15870117,154079,27.8898
8513,805,"Bernard Montgomery, 1st Viscount Montgomery of Alamein",Male,1887,Kennington,,United Kingdom,Europe,,,Military Personnel,Military,Institutions,51,1965909,38547,26.3249
8711,7814,Courteney Cox,Female,1964,Birmingham,AL,United States,North America,33.525,-86.81299999999996,Actor,Film And Theatre,Arts,45,15912321,353607,21.425
10349,6726,"William Wyndham Grenville, 1st Baron Grenville",Male,1759,Wotton House,Buckinghamshire,United Kingdom,Europe,51.8378,-1.0024,Politician,Government,Institutions,27,71795,2659,22.3933
5131,48,Sigmund Freud,Male,1856,Příbor,,Czech Republic,Europe,49.63861,18.14389,Psychologist,Social Sciences,Science & Technology,134,43475930,324447,29.6293
246,8504,Ethan Hawke,Male,1970,Austin,TX,United States,North America,30.25,-97.75,Actor,Film And Theatre,Arts,44,10854797,246700,20.4364
5125,9690,Pharrell Williams,Male,1973,Virginia Beach,VA,United States,North America,36.8506,-75.9779,Singer,Music,Arts,26,12748032,490309,18.2166
5560,10094,Ivica Vastic,Male,1969,Split,,Croatia,Europe,43.51,16.45,Soccer Player,Team Sports,Sports,29,403219,13904,17.3476
3009,943,Carl Maria von Weber,Male,1786,Eutin,,Germany,Europe,54.13778000000001,10.61806,Composer,Music,Arts,49,2138019,43633,26.1364
9910,4149,Nicolas Malebranche,Male,1638,Paris,,France,Europe,48.8567,2.3508,Philosopher,Philosophy,Humanities,27,634502,23500,23.8625
8391,4919,Nicolas Jean de Dieu Soult,Male,1769,Saint-Amans-Soult,,France,Europe,43.4778,2.4906,Military Personnel,Military,Institutions,28,346341,12369,23.4565
2064,5878,Raquel Welch,Female,1940,Chicago,IL,United States,North America,41.83694000000001,-87.68472,Actor,Film And Theatre,Arts,30,7577310,252577,22.9145
2861,5910,J. K. Rowling,Female,1965,Yate,,United Kingdom,Europe,51.5402,-2.41099,Writer,Language,Humanities,91,22229230,244277,22.9002
6139,7759,Danny Boyle,Male,1956,Radcliffe,,United Kingdom,Europe,53.5615,-2.3268,Film Director,Film And Theatre,Arts,54,8034024,148778,21.4804
6374,7539,Dick Advocaat,Male,1947,The Hague,,Netherlands,Europe,52.08333,4.316669999999999,Coach,Team Sports,Sports,33,1379092,41791,21.737
9400,8900,Patrick Vieira,Male,1976,Dakar,,Senegal,Africa,14.692779999999999,-17.44667,Soccer Player,Team Sports,Sports,45,4819565,107101,19.7761
1233,4791,Hans von Euler-Chelpin,Male,1873,Augsburg,,Germany,Europe,48.36667,10.9,Chemist,Natural Sciences,Science & Technology,38,220023,5790,23.5269
1987,888,Camille Pissarro,Male,1830,Charlotte Amalie,,Us Virgin Islands,North America,18.35,-64.95,Painter,Fine Arts,Arts,55,3615363,65734,26.2016
4095,6949,Vicente Del Bosque,Male,1950,Salamanca,,Spain,Europe,40.96161,-5.66761,Coach,Team Sports,Sports,44,3207601,72900,22.252
6605,3226,Andrew II of Hungary,Male,1177,Esztergom,,Hungary,Europe,47.78556,18.74028,Politician,Government,Institutions,30,527331,17578,24.3764
3442,3105,José de San Martín,Male,1778,Yapeyú,,Argentina,South America,-29.46667,-56.833330000000004,Military Personnel,Military,Institutions,53,9933354,187422,24.4482
4396,4852,Rudolf Nureyev,Male,1938,Irkutsk,,Russia,Europe,52.31222,104.29583000000001,Dancer,Dance,Arts,34,2883662,84814,23.4958
5626,4592,George Clooney,Male,1961,Lexington,KY,United States,North America,38.02972000000001,-84.49472,Actor,Film And Theatre,Arts,63,30655961,486603,23.6325
9217,5177,Petrus Canisius,Male,1521,Nijmegen,,Netherlands,Europe,51.85,5.86667,Physician,Medicine,Science & Technology,26,277071,10657,23.301
2050,8421,Benicio del Toro,Male,1967,San Germán,,Puerto Rico,North America,18.0,-67.0,Actor,Film And Theatre,Arts,38,7594841,199864,20.5551
9332,6460,Carol Reed,Male,1906,Putney,,United Kingdom,Europe,51.4649,-0.2211,Film Director,Film And Theatre,Arts,26,659050,25348,22.574
4216,10221,Cosmin Contra,Male,1975,Timișoara,,Romania,Europe,45.75972,21.23,Soccer Player,Team Sports,Sports,27,461209,17082,17.0697
9928,3025,Samuel P. Huntington,Male,1927,New York,NY,United States,North America,40.7127,-74.0059,Political Scientist,Social Sciences,Science & Technology,47,2528216,53792,24.4945
1531,4832,Wolfgang Petersen,Male,1941,Emden,,Germany,Europe,53.36694,7.2061100000000025,Film Director,Film And Theatre,Arts,30,1623170,54106,23.5067
5666,4247,Augustus De Morgan,Male,1806,Madras Presidency,,India,Asia,9.9,78.1,Mathematician,Math,Science & Technology,32,617540,19298,23.8179
8860,4975,Christian VIII of Denmark,Male,1786,Copenhagen,,Denmark,Europe,55.67583000000001,12.57889,Politician,Government,Institutions,27,688965,25517,23.4226
4844,10788,Bridgit Mendler,Female,1992,"Washington, D.C.",,United States,North America,,,Actor,Film And Theatre,Arts,29,11746712,405059,15.6273
7281,7426,Hank Aaron,Male,1934,Mobile,AL,United States,North America,30.694440000000004,-88.04306,Baseball Player,Team Sports,Sports,26,3440732,132336,21.8635
10101,8510,Kevin James,Male,1965,Long Island,NY,United States,North America,40.74722,-73.63806,Actor,Film And Theatre,Arts,35,3639619,103989,20.4254
5120,824,John Wayne,Male,1907,Winterset,IA,United States,North America,41.33583,-94.01389,Actor,Film And Theatre,Arts,75,19285086,257134,26.285999999999998
2757,1361,Farinelli,Male,1705,Andria,,Italy,Europe,41.21667,16.3,Singer,Music,Arts,32,2167852,67745,25.6603
10145,1911,Luchino Visconti,Male,1906,Milan,,Italy,Europe,45.46667,9.18333,Film Director,Film And Theatre,Arts,43,2809307,65333,25.1875
9529,9778,Aliaksandr Hleb,Male,1981,Minsk,,Belarus,Europe,53.9,27.566670000000002,Soccer Player,Team Sports,Sports,41,2738624,66796,18.0247
1719,10595,Kajsa Bergqvist,Female,1976,Sollentuna Municipality,,Sweden,Europe,59.43333000000001,17.95,Athlete,Individual Sports,Sports,26,493886,18996,16.1195
4762,2458,Alexander Kerensky,Male,1881,Ulyanovsk,,Russia,Europe,54.316669999999995,48.36667,Politician,Government,Institutions,51,2033402,39871,24.8072
10244,6124,Tony Levin,Male,1946,Boston,MA,United States,North America,42.358059999999995,-71.06361,Musician,Music,Arts,26,1222774,47030,22.7798
10334,9607,Erica Durance,Female,1978,Calgary,,Canada,North America,51.05,-114.06667,Actor,Film And Theatre,Arts,27,4710361,174458,18.3684
207,2891,Magda Goebbels,Female,1901,Berlin,,Germany,Europe,52.51667,13.383329999999999,Companion,Companions,Public Figure,29,2690142,92764,24.5602
2358,6660,Willy Messerschmitt,Male,1898,Frankfurt,,Germany,Europe,50.11667,8.68333,Engineer,Engineering,Science & Technology,28,725595,25914,22.4325
2554,10478,Sebastian Giovinco,Male,1987,Turin,,Italy,Europe,45.06667,7.7,Soccer Player,Team Sports,Sports,33,4161027,126092,16.4298
1995,5587,Angelina Jolie,Female,1975,Los Angeles,CA,United States,North America,34.05,-118.25,Actor,Film And Theatre,Arts,91,68213700,749601,23.0784
1310,4627,Conrad Gessner,Male,1516,Zürich,,Switzerland,Europe,47.36667,8.55,Biologist,Natural Sciences,Science & Technology,33,307767,9326,23.6112
10834,9445,Massimiliano Allegri,Male,1967,Livorno,,Italy,Europe,43.55,10.31667,Coach,Team Sports,Sports,29,1747469,60258,18.6978
8435,3619,Demetrius I Soter,Male,-187,Other,,Unknown,Unknown,,,Politician,Government,Institutions,29,164997,5690,24.1712
10899,8286,Patriarch Kirill I of Moscow,Male,1946,Saint Petersburg,,Russia,Europe,59.95,30.3,Politician,Government,Institutions,39,508104,13028,20.7499
10269,11186,Princess Beatrice of York,Female,1988,London,,United Kingdom,Europe,51.5227,-0.1436,Nobleman,Government,Institutions,27,5548756,205509,13.9744
7170,7963,Michael Clarke Duncan,Male,1957,Chicago,IL,United States,North America,41.83694000000001,-87.68472,Actor,Film And Theatre,Arts,54,19546359,361970,21.2122
4799,9545,Sergey Stanishev,Male,1966,Kherson,,Ukraine,Europe,46.63333,32.58333,Politician,Government,Institutions,36,425956,11832,18.5089
4507,6410,Wolfgang Schüssel,Male,1945,Vienna,,Austria,Europe,48.2,16.366670000000006,Politician,Government,Institutions,35,452271,12922,22.6067
717,6483,Alexander I of Serbia,Male,1876,Belgrade,,Serbia,Europe,44.81667,20.46667,Politician,Government,Institutions,28,510669,18238,22.5606
6953,5740,Roger Joseph Boscovich,Male,1711,Dubrovnik,,Croatia,Europe,42.64028,18.10833,Astronomer,Natural Sciences,Science & Technology,27,547166,20265,22.9907
7564,8030,Charles Taylor,Male,1948,Arthington,,Liberia,Africa,6.5166699999999995,-10.68333,Politician,Government,Institutions,33,293689,8900,21.1376
6330,3063,Amos Oz,Male,1939,Jerusalem,,Israel,Asia,31.78333,35.21667,Writer,Language,Humanities,37,1417148,38301,24.4721
7420,8495,Davor Šuker,Male,1968,Osijek,,Croatia,Europe,45.55753,18.67959,Soccer Player,Team Sports,Sports,41,2637096,64319,20.4532
10433,11175,Kevin Doyle,Male,1983,Adamstown,,Ireland,Europe,52.394,-6.7170000000000005,Soccer Player,Team Sports,Sports,28,807676,28846,14.0487
3830,2769,Jean Monnet,Male,1888,Cognac,,France,Europe,45.7,-0.33,Politician,Government,Institutions,33,1803310,54646,24.6276
4756,4134,Pope Stephen III,Male,720,Sicily,,Italy,Europe,37.5,14.0,Religious Figure,Religion,Institutions,46,237994,5174,23.869
9084,7256,Poul Nyrup Rasmussen,Male,1943,Esbjerg,,Denmark,Europe,55.48333,8.45,Politician,Government,Institutions,26,395397,15208,22.0083
5163,9002,Marc Overmars,Male,1973,Emst,,Netherlands,Europe,52.31583,5.97389,Soccer Player,Team Sports,Sports,32,2228172,69630,19.5587
9566,5257,Francis Fukuyama,Male,1952,Chicago,IL,United States,North America,41.8,-87.59,Political Scientist,Social Sciences,Science & Technology,43,2621935,60975,23.2514
9475,6944,Willem Drees,Male,1886,Amsterdam,,Netherlands,Europe,52.36667,4.9,Politician,Government,Institutions,26,387503,14904,22.2576
11059,2035,Pope Pontian,Male,200,Other,,Unknown,,,,Religious Figure,Religion,Institutions,55,571977,10400,25.1029
901,1070,Walt Whitman,Male,1819,Long Island,NY,United States,North America,40.82417,-73.43444000000002,Writer,Language,Humanities,63,8486024,134699,25.9573
4243,4941,Menelek II of Ethiopia,Male,1844,Shewa,,Ethiopia,Africa,,,Politician,Government,Institutions,32,658942,20592,23.4419
10896,3191,Luca Signorelli,Male,1445,Cortona,,Italy,Europe,43.27556,11.98806,Artist,Fine Arts,Arts,30,570079,19003,24.3963
558,9032,Valentina Matviyenko,Female,1949,Shepetivka,,Ukraine,Europe,50.18333,27.066670000000002,Politician,Government,Institutions,45,339940,7554,19.5061
9520,638,Adolf Eichmann,Male,1906,Solingen,,Germany,Europe,51.16667,7.08333,Military Personnel,Military,Institutions,57,11291586,198098,26.6558
3184,9633,Ali-Ben Bongo,Male,1959,Brazzaville,,Congo,Africa,-4.26778,15.291939999999999,Politician,Government,Institutions,26,529637,20371,18.3266
1895,5618,Karl Ernst von Baer,Male,1792,Estonia,,Estonia,Europe,59.0,26.0,Biologist,Natural Sciences,Science & Technology,27,345240,12787,23.0597
433,10674,Petit,Male,1976,Strasbourg,,France,Europe,48.58,7.75,Soccer Player,Team Sports,Sports,28,201533,7198,15.9308
10635,7745,Thomas Keneally,Male,1935,Sydney,,Australia,Oceania,-33.865,151.20944,Writer,Language,Humanities,26,503534,19367,21.500999999999998
6254,7512,Miguel de la Madrid,Male,1934,Colima,,Mexico,North America,19.24333,-103.72471999999999,Politician,Government,Institutions,28,1727306,61690,21.7779
5799,3819,Léonin,Male,1150,Other,,Unknown,Unknown,,,Composer,Music,Arts,27,381968,14147,24.0543
4698,2074,Elfriede Jelinek,Female,1946,Mürzzuschlag,,Austria,Europe,47.6075,15.673060000000001,Writer,Language,Humanities,65,1834901,28229,25.0765
7800,4449,Valmiki,Male,-400,India,,India,Asia,,,Writer,Language,Humanities,32,1116596,34894,23.7111
8835,1238,Louis Braille,Male,1809,Coupvray,,France,Europe,48.8925,2.7939,Inventor,Invention,Science & Technology,59,3143056,53272,25.7614
3897,1322,Procopius,Male,500,Caesarea,,Israel,Asia,32.50224,34.908429999999996,Historian,History,Humanities,42,889338,21175,25.7048
885,5769,Corazon Aquino,Female,1933,Paniqui,,Philippines,Asia,15.666670000000002,120.58333,Politician,Government,Institutions,76,4505509,59283,22.9775
8151,7651,"Camilla, The Duchess of Cornwall",Female,1947,London,,United Kingdom,Europe,51.507220000000004,-0.1275,Nobleman,Government,Institutions,35,925205,26434,21.6106
9982,3140,Eduard Bernstein,Male,1850,Berlin,,Germany,Europe,52.51667,13.383329999999999,Politician,Government,Institutions,36,793147,22032,24.4264
11258,5159,Felipe González,Male,1942,Seville,,Spain,Europe,37.37722,-5.98694,Politician,Government,Institutions,43,1387810,32275,23.3133
7966,4825,Alfred Hermann Fried,Male,1864,Vienna,,Austria,Europe,48.2,16.366670000000006,Social Activist,Activism,Public Figure,36,242963,6749,23.5088
7263,8159,Andre Agassi,Male,1970,Las Vegas,NV,United States,North America,36.12151,-115.17385,Tennis Player,Individual Sports,Sports,69,11244030,162957,20.926
2289,2261,Cesare Lombroso,Male,1835,Verona,,Italy,Europe,45.43333,10.98333,Physician,Medicine,Science & Technology,38,2246551,59120,24.9389
9755,7395,Seamus Heaney,Male,1939,Castledawson,,United Kingdom,Europe,54.778,-6.556,Writer,Language,Humanities,59,2511998,42576,21.8919
8156,261,Mustafa Kemal Atatürk,Male,1881,Thessaloniki,,Greece,Europe,40.65,22.9,Politician,Government,Institutions,166,19455613,117202,27.6575
9823,5008,James Woods,Male,1947,Vernal,UT,United States,North America,40.45472,-109.53556,Actor,Film And Theatre,Arts,38,7618388,200484,23.4044
474,4724,Antonio Negri,Male,1933,Padua,,Italy,Europe,45.41667,11.86667,Philosopher,Philosophy,Humanities,26,1120657,43102,23.5643
5841,526,Eric Clapton,Male,1945,Ripley,,United Kingdom,Europe,51.29786,-0.4881,Musician,Music,Arts,65,23996621,369179,26.8921
4734,3353,Fernand Léger,Male,1881,Argentan,,France,Europe,48.75,-0.02,Painter,Fine Arts,Arts,34,1878407,55247,24.308000000000003
4595,1383,Jugurtha,Male,-160,Tunisia,,Tunisia,Africa,34.0,9.0,Politician,Government,Institutions,30,863346,28778,25.6426
8058,6648,Linda Lovelace,Female,1949,New York,NY,United States,North America,40.8373,-73.88600000000002,Pornographic Actor,Media Personality,Public Figure,33,12059577,365442,22.4403
1832,7992,Guillermo Vilas,Male,1952,Buenos Aires,,Argentina,South America,-34.60333,-58.38166999999999,Tennis Player,Individual Sports,Sports,30,1240600,41353,21.1812
7156,4291,Jacques Hébert,Male,1757,Alençon,,France,Europe,48.4306,0.0931,Writer,Language,Humanities,30,503594,16786,23.7935
3266,1809,Ilya Yefimovich Repin,Male,1844,Chuhuiv,,Ukraine,Europe,49.83556,36.68639,Artist,Fine Arts,Arts,48,1785893,37206,25.2647
7554,3139,Pope Severinus,Male,600,Rome,,Italy,Europe,41.9,12.5,Religious Figure,Religion,Institutions,49,249374,5089,24.4265
8147,3054,Anna Freud,Female,1895,Vienna,,Austria,Europe,48.2,16.366670000000006,Psychologist,Social Sciences,Science & Technology,33,1824232,55280,24.4755
3156,6072,Ladislao Kubala,Male,1927,Budapest,,Hungary,Europe,47.4925,19.051389999999998,Soccer Player,Team Sports,Sports,27,846889,31366,22.815
9318,6943,Ian Anderson,Male,1947,Dunfermline,,United Kingdom,Europe,56.07192,-3.4393,Musician,Music,Arts,26,1577388,60669,22.2576
3285,3490,Joris-Karl Huysmans,Male,1848,Paris,,France,Europe,48.8567,2.3508,Writer,Language,Humanities,30,1009202,33640,24.2338
5428,6175,Daniel D. Tompkins,Male,1774,Lower Hudson Valley,NY,United States,North America,40.99222,-73.78694,Politician,Government,Institutions,31,323995,10451,22.7453
1273,7337,Joan Fontaine,Female,1917,Tokyo,,Japan,Asia,35.68333,139.68333,Actor,Film And Theatre,Arts,38,3924213,103269,21.9421
535,2939,Constantine VIII,Male,960,Other,,Unknown,Unknown,,,Politician,Government,Institutions,32,304115,9504,24.5362
46,7603,Hartmut Michel,Male,1948,Ludwigsburg,,Germany,Europe,48.8975,9.192219999999999,Chemist,Natural Sciences,Science & Technology,31,193854,6253,21.6663
4303,9502,Michael Sata,Male,1937,Mpika,,Zambia,Africa,-11.85833,31.433329999999998,Politician,Government,Institutions,27,323040,11964,18.5709
5299,8610,Will Eisner,Male,1917,New York,NY,United States,North America,40.69278,-73.99028,Comic Artist,Design,Arts,26,1595348,61360,20.2573
3183,6304,Pierre Messmer,Male,1916,Vincennes,,France,Europe,48.8478,2.4392,Politician,Government,Institutions,30,453237,15108,22.6595
425,1657,Martin Buber,Male,1878,Vienna,,Austria,Europe,48.2,16.366670000000006,Philosopher,Philosophy,Humanities,43,2075406,48265,25.4017
9080,5430,John II of Castile,Male,1405,Toro,,Spain,Europe,41.52556,-5.39111,Politician,Government,Institutions,27,727506,26945,23.1547
7631,10645,Ruslan Ponomariov,Male,1983,Horlivka,,Ukraine,Europe,48.3,38.05,Chessmaster,Individual Sports,Sports,32,321402,10044,15.9929
4205,5405,Max Beckmann,Male,1884,Leipzig,,Germany,Europe,51.33333,12.38333,Artist,Fine Arts,Arts,26,1087188,41815,23.1708
10374,6553,Walter Baade,Male,1893,Preußisch Oldendorf,,Germany,Europe,52.28333,8.5,Astronomer,Natural Sciences,Science & Technology,29,161458,5568,22.5114
3590,6718,Jon Lord,Male,1941,Leicester,,United Kingdom,Europe,52.63333000000001,-1.13333,Musician,Music,Arts,39,2957444,75832,22.399
6519,6704,Jim Jones,Male,1931,Lynn,IN,United States,North America,40.0475,-84.94221999999998,Extremist,Outlaws,Public Figure,28,9457689,337775,22.406999999999996
3337,10549,Prince Harry of Wales,Male,1984,London,,United Kingdom,Europe,51.5172,-0.17300000000000001,Nobleman,Government,Institutions,46,11975850,260345,16.2492
9889,5213,Jean Nouvel,Male,1945,Fumel,,France,Europe,44.4969,0.9681,Architect,Design,Arts,36,2010683,55852,23.276
10740,9524,Tsai Ing-wen,Female,1956,Pingtung County,,Taiwan,Asia,,,Politician,Government,Institutions,32,783564,24486,18.5397
7298,7317,Robert Moog,Male,1934,New York,NY,United States,North America,40.7127,-74.0059,Inventor,Invention,Science & Technology,37,6576820,177752,21.9659
1803,565,Ray Charles,Male,1930,Albany,GA,United States,North America,31.58222,-84.16556,Musician,Music,Arts,66,16687029,252834,26.7861
2193,4316,Friedrich Wilhelm Murnau,Male,1888,Bielefeld,,Germany,Europe,52.01667,8.51667,Film Director,Film And Theatre,Arts,31,1224423,39498,23.7821
5742,6554,Finn E. Kydland,Male,1943,Ålgård,,Norway,Europe,58.76483,5.85548,Economist,Social Sciences,Science & Technology,30,235238,7841,22.5111
8988,11012,Kieran Gibbs,Male,1989,Lambeth,,United Kingdom,Europe,51.4903,-0.1193,Soccer Player,Team Sports,Sports,33,1656494,50197,14.8477
1154,10834,Atifete Jahjaga,Female,1975,Đakovica,,Kosovo,Europe,42.38333,20.433329999999998,Politician,Government,Institutions,29,422765,14578,15.4891
5844,4170,Boris Karloff,Male,1887,East Dulwich,,United Kingdom,Europe,51.461999999999996,-0.084,Actor,Film And Theatre,Arts,37,3581283,96791,23.855
5793,7625,Mario Draghi,Male,1947,Rome,,Italy,Europe,41.9,12.5,Economist,Social Sciences,Science & Technology,29,1885472,65016,21.6368
9979,6955,Myron Scholes,Male,1941,Timmins,,Canada,North America,48.46667,-81.33333,Economist,Social Sciences,Science & Technology,29,594486,20500,22.2417
9997,8823,Anote Tong,Male,1952,Tabuaeran,,Kiribati,Oceania,3.86,-159.36444,Politician,Government,Institutions,31,281900,9094,19.9227
7208,3004,Bernard Bolzano,Male,1781,Prague,,Czech Republic,Europe,50.08333,14.416670000000002,Philosopher,Philosophy,Humanities,40,547979,13699,24.5064
6876,9310,Ralf Schumacher,Male,1975,Hürth,,Germany,Europe,50.8775,6.8761100000000015,Racecar Driver,Individual Sports,Sports,41,2388016,58244,18.9739
9845,904,Alexander Nevsky,Male,1220,Pereslavl-Zalessky,,Russia,Europe,56.73333,38.85,Nobleman,Government,Institutions,47,2959249,62963,26.1818
9950,6893,Joseph Greenberg,Male,1915,New York,NY,United States,North America,40.69278,-73.99028,Linguist,Language,Humanities,26,283198,10892,22.2891
3415,10749,Ivo Karlović,Male,1979,Zagreb,,Croatia,Europe,45.81667,15.983329999999999,Tennis Player,Individual Sports,Sports,28,1069548,38198,15.7363
8805,10076,Robert Kovač,Male,1974,Berlin,,Germany,Europe,,,Soccer Player,Team Sports,Sports,30,650326,21678,17.378
8866,6442,Dimitris Christofias,Male,1946,Dikomo,,Cyprus,Asia,35.26722,33.325,Politician,Government,Institutions,44,441503,10034,22.5859
3032,6198,Henry Campbell-Bannerman,Male,1836,Glasgow,,United Kingdom,Europe,55.858000000000004,-4.2589999999999995,Politician,Government,Institutions,35,434589,12417,22.7315
6781,1457,Henry James,Male,1843,New York,NY,United States,North America,40.7127,-74.0059,Writer,Language,Humanities,49,4273354,87211,25.561999999999998
8797,1146,Maximian,Male,250,Sirmium,,Serbia,Europe,44.98333,19.616670000000006,Politician,Government,Institutions,52,952259,18313,25.8802
4633,9625,Klaas Jan Huntelaar,Male,1983,Bronckhorst,,Netherlands,Europe,52.05,6.3,Soccer Player,Team Sports,Sports,51,6516310,127771,18.3372
6621,5860,Tom Wolfe,Male,1931,Richmond,VA,United States,North America,37.53333,-77.46667,Writer,Language,Humanities,27,2297349,85087,22.9275
3777,6208,"Norman Foster Ramsey, Jr.",Male,1915,"Washington, D.C.",,United States,North America,,,Physicist,Natural Sciences,Science & Technology,38,193123,5082,22.7225
6408,8642,Ellen Barkin,Female,1954,New York,NY,United States,North America,40.8373,-73.88600000000002,Actor,Film And Theatre,Arts,26,4517519,173751,20.2107
